{"yaw":-0.0093630062787539402,"roll":-0.148655696096717,"speed":-3.6000000000000001,"altitude":0.350469410419464,"xAccel":1.67166497558355,"longitude":174.80819266814001,"yAccel":-10.0739985704422,"latitude":-41.329216728587703,"date":1445310652.1848199,"zAccel":5.9324577450752303,"pitch":-3.0006910723386802}
{"yaw":0.00050668040683156401,"roll":-0.157236549187941,"speed":-3.6000000000000001,"altitude":0.350469410419464,"xAccel":-2.5638520717620801,"longitude":174.80819266814001,"yAccel":-5.1955461502075204,"latitude":-41.329216728587703,"date":1445310652.2848301,"zAccel":4.6498849987983704,"pitch":-3.0115917991799201}
{"yaw":-0.0091652347975516597,"roll":-0.16783752759540399,"speed":-3.6000000000000001,"altitude":0.350469410419464,"xAccel":0.10554237524047499,"longitude":174.80819266814001,"yAccel":-12.1830783784389,"latitude":-41.329216728587703,"date":1445310652.3849199,"zAccel":-1.5212454833090301,"pitch":-3.0350958542802902}
{"yaw":-0.018246157075327799,"roll":-0.17162974434998199,"speed":-3.6000000000000001,"altitude":0.350469410419464,"xAccel":0.40620891377329799,"longitude":174.80819266814001,"yAccel":-0.19761957228183699,"latitude":-41.329216728587703,"date":1445310652.4850199,"zAccel":-9.7355231642723101,"pitch":-3.0591350751660502}
{"yaw":-0.014568595701898401,"roll":-0.185174328955961,"speed":-3.6000000000000001,"altitude":0.350469410419464,"xAccel":8.0973058938980103,"longitude":174.80819266814001,"yAccel":-10.701122134923899,"latitude":-41.329216728587703,"date":1445310652.58481,"zAccel":-8.1064857542514801,"pitch":-3.0657294636067598}
{"yaw":-0.035643465794131898,"roll":-0.20134624384115901,"speed":-3.6000000000000001,"altitude":0.350469410419464,"xAccel":4.0947720408439601,"longitude":174.80819266814001,"yAccel":-9.1025143861770594,"latitude":-41.329216728587703,"date":1445310652.68483,"zAccel":-9.1145217418670708,"pitch":-3.0527319231880399}
{"yaw":-0.052429634768364299,"roll":-0.19858907772596801,"speed":-3.6000000000000001,"altitude":0.350469410419464,"xAccel":-2.7303425595164299,"longitude":174.80819266814001,"yAccel":-12.473198771476699,"latitude":-41.329216728587703,"date":1445310652.7848001,"zAccel":-3.5039898008108099,"pitch":-3.0072007619333299}
{"yaw":-0.0028039534756562502,"roll":-0.146967393016219,"speed":-3.6000000000000001,"altitude":0.350469410419464,"xAccel":3.5735785961151101,"longitude":174.80819266814001,"yAccel":-17.1671479940414,"latitude":-41.329216728587703,"date":1445310652.88481,"zAccel":17.9809600114822,"pitch":-2.9549839013985602}
{"yaw":-0.0034367543040538301,"roll":0.098904113221689502,"speed":-3.6000000000000001,"altitude":0.350469410419464,"xAccel":-8.3660617470741307,"longitude":174.80819266814001,"yAccel":6.99110627174377,"latitude":-41.329216728587703,"date":1445310652.9848299,"zAccel":15.940910577774,"pitch":-3.0455277845023399}
{"yaw":-0.12912424155904301,"roll":0.098647115456685197,"speed":-3.6000000000000001,"altitude":0.350469410419464,"xAccel":7.7063858509063703,"longitude":174.80819266814001,"yAccel":7.9855322837829599,"latitude":-41.329216728587703,"date":1445310653.08483,"zAccel":18.431709706783298,"pitch":-3.0103368614392099}
{"yaw":-0.22206526920200301,"roll":0.012829342264092001,"speed":-3.6000000000000001,"altitude":0.350469410419464,"xAccel":-9.9887683987617493,"longitude":174.80819266814001,"yAccel":-1.7938109114766101,"latitude":-41.329216728587703,"date":1445310653.18607,"zAccel":15.4741138219833,"pitch":-2.9299995173028099}
{"yaw":-0.320104216580546,"roll":-0.025665879060791302,"speed":-3.6000000000000001,"altitude":0.350469410419464,"xAccel":-13.023154437542001,"longitude":174.80819266814001,"yAccel":3.31390276551247,"latitude":-41.329216728587703,"date":1445310653.2849,"zAccel":8.2501672208309191,"pitch":-2.9729349519266002}
{"yaw":-0.40262272574042401,"roll":-0.030346097954219501,"speed":-3.6000000000000001,"altitude":0.350469410419464,"xAccel":-29.170924425125101,"longitude":174.80819266814001,"yAccel":40.367963910102802,"latitude":-41.329216728587703,"date":1445310653.3850501,"zAccel":5.8176167309284201,"pitch":-2.9986387602683902}
{"yaw":-0.44160730408545601,"roll":-0.054466623663547098,"speed":-3.6000000000000001,"altitude":0.350469410419464,"xAccel":2.9376830905675901,"longitude":174.80819266814001,"yAccel":0.020106838201172601,"latitude":-41.329216728587703,"date":1445310653.4848399,"zAccel":2.47502867132425,"pitch":-2.9667417415825001}
{"yaw":-0.43696110856603798,"roll":-0.105421399252944,"speed":-3.6000000000000001,"altitude":0.350469410419464,"xAccel":7.61702433228493,"longitude":174.80819266814001,"yAccel":-15.014652907848401,"latitude":-41.329216728587703,"date":1445310653.5848401,"zAccel":4.6688497066497803,"pitch":-2.99153373768049}
{"yaw":-0.41255482118991899,"roll":-0.103823493236333,"speed":-3.6000000000000001,"altitude":0.350469410419464,"xAccel":5.5618911981582597,"longitude":174.80819266814001,"yAccel":-10.457406193018,"latitude":-41.329216728587703,"date":1445310653.68485,"zAccel":7.5644232332706496,"pitch":-3.0277844821360702}
{"yaw":-0.39671187071358199,"roll":-0.078339112339154707,"speed":-3.6000000000000001,"altitude":0.350469410419464,"xAccel":2.7530176565051101,"longitude":174.80819266814001,"yAccel":-6.8567946553230303,"latitude":-41.329216728587703,"date":1445310653.7848101,"zAccel":5.7596795260906202,"pitch":-3.08242185345016}
{"yaw":-0.39349801443810301,"roll":-0.041580495648653501,"speed":-3.6000000000000001,"altitude":0.350469410419464,"xAccel":3.3260587602853802,"longitude":174.80819266814001,"yAccel":-3.1952276825904802,"latitude":-41.329216728587703,"date":1445310653.8843801,"zAccel":8.3972036838531494,"pitch":3.1393633134700898}
{"yaw":-0.41021412045085898,"roll":-0.018204090051980801,"speed":-3.6000000000000001,"altitude":0.350469410419464,"xAccel":-5.8623615652322796,"longitude":174.80819266814001,"yAccel":-8.4414795041084307,"latitude":-41.329216728587703,"date":1445310653.98487,"zAccel":-4.75669950246811,"pitch":3.1091445749989099}
{"yaw":-0.46259436498296003,"roll":-0.023214559469660799,"speed":18.071999931335501,"altitude":32.9111328125,"xAccel":2.0381886512041101,"longitude":174.80388455109201,"yAccel":-7.9457037150859797,"latitude":-41.328682657369697,"date":1445310654.0850201,"zAccel":-4.7826103866100302,"pitch":3.1262878913239001}
{"yaw":-0.50802120189654298,"roll":-0.061096807548902697,"speed":18.071999931335501,"altitude":32.9111328125,"xAccel":2.6206210255622899,"longitude":174.80388455109201,"yAccel":-14.013047516346001,"latitude":-41.328682657369697,"date":1445310654.18483,"zAccel":-0.57489336468279395,"pitch":3.1377492707271299}
{"yaw":-0.52750652570418799,"roll":-0.084009061408016103,"speed":18.071999931335501,"altitude":32.9111328125,"xAccel":8.3936400711536407,"longitude":174.80388455109201,"yAccel":-19.557878375053399,"latitude":-41.328682657369697,"date":1445310654.2847199,"zAccel":-16.9169217348099,"pitch":3.10813487461319}
{"yaw":-0.52499820266328401,"roll":-0.0623740294696883,"speed":18.071999931335501,"altitude":33.6650390625,"xAccel":6.1583034694194803,"longitude":174.80385119111699,"yAccel":-3.7134416401386301,"latitude":-41.328667067029798,"date":1445310654.3848801,"zAccel":-1.8708322197198901,"pitch":3.0154590368354501}
{"yaw":-0.51560300429406902,"roll":0.010413787016558099,"speed":18.071999931335501,"altitude":33.6650390625,"xAccel":-15.2412936091423,"longitude":174.80385119111699,"yAccel":-9.1005250811576808,"latitude":-41.328667067029798,"date":1445310654.4848299,"zAccel":21.2116122245789,"pitch":2.9329499770780498}
{"yaw":-0.62026776757343804,"roll":0.039186132380710698,"speed":18.071999931335501,"altitude":33.6650390625,"xAccel":-20.7619547843933,"longitude":174.80385119111699,"yAccel":-3.6462411284446699,"latitude":-41.328667067029798,"date":1445310654.58499,"zAccel":6.1038523912429801,"pitch":2.91079061516812}
{"yaw":-0.75902885860382696,"roll":0.070610986880837695,"speed":18.071999931335501,"altitude":33.6650390625,"xAccel":2.6622271165251701,"longitude":174.80385119111699,"yAccel":10.747379064559899,"latitude":-41.328667067029798,"date":1445310654.6842401,"zAccel":6.26079365611076,"pitch":2.9369102878879398}
{"yaw":-0.89220602513277703,"roll":0.13391415351261299,"speed":18.071999931335501,"altitude":33.6650390625,"xAccel":20.928941667079901,"longitude":174.80385119111699,"yAccel":7.6635263860225704,"latitude":-41.328667067029798,"date":1445310654.7850499,"zAccel":2.1879477426409699,"pitch":2.97883515003518}
{"yaw":-0.88507082465601905,"roll":0.12597332621481599,"speed":18.071999931335501,"altitude":33.6650390625,"xAccel":1.2145533226430401,"longitude":174.80385119111699,"yAccel":-4.62532229721546,"latitude":-41.328667067029798,"date":1445310654.88483,"zAccel":-2.3292081430554399,"pitch":2.9740722742249002}
{"yaw":-0.85484944698999099,"roll":0.14120562222972799,"speed":18.071999931335501,"altitude":33.6650390625,"xAccel":1.10981678590178,"longitude":174.80385119111699,"yAccel":1.0139196179807199,"latitude":-41.328667067029798,"date":1445310654.9848399,"zAccel":-7.9876683652400997,"pitch":2.9781677046913702}
{"yaw":-0.83669589599496996,"roll":0.123183013889948,"speed":18.071999931335501,"altitude":33.6650390625,"xAccel":5.59314116835594,"longitude":174.80385119111699,"yAccel":-17.670908570289601,"latitude":-41.328667067029798,"date":1445310655.0848601,"zAccel":7.7518880367279097,"pitch":2.9625112298287402}
{"yaw":-0.84053804965636603,"roll":0.100825805973662,"speed":18.071999931335501,"altitude":33.6650390625,"xAccel":-10.166122019290899,"longitude":174.80385119111699,"yAccel":-20.249271392822301,"latitude":-41.328667067029798,"date":1445310655.1847501,"zAccel":-7.8832395374774897,"pitch":2.99902448026881}
{"yaw":-0.88589552106574099,"roll":-0.019957172200620099,"speed":18.071999931335501,"altitude":33.6650390625,"xAccel":17.6333218812943,"longitude":174.80385119111699,"yAccel":-9.5457866787910497,"latitude":-41.328667067029798,"date":1445310655.30551,"zAccel":-14.364568889141101,"pitch":2.9836163394458102}
{"yaw":-0.82117172312523901,"roll":-0.39825846126272701,"speed":2.2320000171661398,"altitude":-24.5328979492188,"xAccel":16.7117953300476,"longitude":174.80408781224401,"yAccel":16.293279826641101,"latitude":-41.328687435054498,"date":1445310655.38662,"zAccel":22.2944527864456,"pitch":2.8076967130580801}
{"yaw":-0.68401196614843696,"roll":-0.61913889887420304,"speed":1.1160000085830699,"altitude":-6.7211608886718803,"xAccel":5.18527776002884,"longitude":174.80399896406999,"yAccel":56.265968084335299,"latitude":-41.328625073694901,"date":1445310656.3585,"zAccel":29.327398538589499,"pitch":2.2120588370238101}
{"yaw":-0.73910197246907305,"roll":-0.110048799612256,"speed":1.1160000085830699,"altitude":-6.7211608886718803,"xAccel":11.3638162612915,"longitude":174.80399896406999,"yAccel":-13.043217360973401,"latitude":-41.328625073694901,"date":1445310656.4888401,"zAccel":-1.7110429704189301,"pitch":2.7577147557622799}
{"yaw":-0.31385097866143102,"roll":0.016907885880730798,"speed":1.1160000085830699,"altitude":-6.7211608886718803,"xAccel":11.076389253139499,"longitude":174.80399896406999,"yAccel":-7.1142710745334599,"latitude":-41.328625073694901,"date":1445310656.6835401,"zAccel":3.34094502031803,"pitch":2.7763164445401198}
{"yaw":-0.044062839228373701,"roll":0.243358295688856,"speed":1.1160000085830699,"altitude":-6.7211608886718803,"xAccel":-43.2727485895157,"longitude":174.80399896406999,"yAccel":-26.928761601448102,"latitude":-41.328625073694901,"date":1445310656.86709,"zAccel":-13.0424275994301,"pitch":2.9610844136581398}
{"yaw":0.00378721570737525,"roll":0.18128370750044701,"speed":1.1160000085830699,"altitude":-6.7211608886718803,"xAccel":-26.901790499687198,"longitude":174.80399896406999,"yAccel":-22.951851785182999,"latitude":-41.328625073694901,"date":1445310656.9978499,"zAccel":23.9852771162987,"pitch":2.8305570414477899}
{"yaw":-0.083708736013705695,"roll":0.185397547076428,"speed":1.1160000085830699,"altitude":-6.7211608886718803,"xAccel":11.434521526098299,"longitude":174.80399896406999,"yAccel":-7.7800832688808397,"latitude":-41.328625073694901,"date":1445310657.1591101,"zAccel":-3.8223430514335601,"pitch":2.96578173242168}
{"yaw":0.095266673644582994,"roll":-0.12331435417499401,"speed":1.1160000085830699,"altitude":-6.7211608886718803,"xAccel":-16.481114923953999,"longitude":174.80399896406999,"yAccel":-4.8239842057228097,"latitude":-41.328625073694901,"date":1445310657.3599601,"zAccel":21.442086994648001,"pitch":2.71007031047988}
{"yaw":0.012402343040729799,"roll":-0.032052364635371602,"speed":0.64800002574920701,"altitude":2.9410400390625,"xAccel":-24.9499872326851,"longitude":174.80407599375999,"yAccel":12.052552402019501,"latitude":-41.328529771455898,"date":1445310657.58144,"zAccel":17.952907085418701,"pitch":2.8049496072342102}
{"yaw":-0.041611445067685902,"roll":0.111845471062027,"speed":0.64800002574920701,"altitude":2.9410400390625,"xAccel":4.2932622134685499,"longitude":174.80407599375999,"yAccel":-38.800033926963799,"latitude":-41.328529771455898,"date":1445310657.72347,"zAccel":-16.3736417889595,"pitch":2.8867648919860001}
{"yaw":-0.081264559607451298,"roll":-0.039713458226683797,"speed":0.64800002574920701,"altitude":2.9410400390625,"xAccel":-16.7663231492043,"longitude":174.80407599375999,"yAccel":46.221578121185303,"latitude":-41.328529771455898,"date":1445310657.8574901,"zAccel":7.7300339937210101,"pitch":2.7252380214867999}
{"yaw":-0.092509616419311103,"roll":0.046754192633441299,"speed":0,"altitude":4.03961181640625,"xAccel":-3.1342063099145898,"longitude":174.80407599375999,"yAccel":-3.16917672753334,"latitude":-41.328529771455898,"date":1445310658.64645,"zAccel":15.0296479463577,"pitch":2.71283827638229}
{"yaw":0.084423925408198097,"roll":0.23106778548221901,"speed":0,"altitude":4.03961181640625,"xAccel":-2.09676809608936,"longitude":174.80407599375999,"yAccel":-38.484156131744399,"latitude":-41.328529771455898,"date":1445310658.7406299,"zAccel":29.7216653823853,"pitch":2.8889695281854801}
{"yaw":0.118129857147342,"roll":0.204558253764627,"speed":0,"altitude":4.03961181640625,"xAccel":-30.548655986785899,"longitude":174.80407599375999,"yAccel":-12.080113589763601,"latitude":-41.328529771455898,"date":1445310658.89621,"zAccel":-32.063707709312403,"pitch":3.1148762670459802}
{"yaw":0.0236146974686905,"roll":0.29204158364965099,"speed":0,"altitude":3.3470458984375,"xAccel":-13.636267185211199,"longitude":174.80407599375999,"yAccel":4.7525297850370398,"latitude":-41.328529771455898,"date":1445310659.1016099,"zAccel":15.333108603954299,"pitch":2.9742829316060702}
{"yaw":0.039364208438844903,"roll":0.10316861091120599,"speed":0,"altitude":3.3470458984375,"xAccel":12.120468169450801,"longitude":174.80407599375999,"yAccel":10.469314455986,"latitude":-41.328529771455898,"date":1445310659.25806,"zAccel":-5.5889517068862897,"pitch":2.8455735067430399}
{"yaw":0.059551318374992397,"roll":0.22632445365534301,"speed":0,"altitude":3.3470458984375,"xAccel":-20.139926671981801,"longitude":174.80407599375999,"yAccel":-1.86849143356085,"latitude":-41.328529771455898,"date":1445310659.4924901,"zAccel":23.0237707495689,"pitch":2.6338844453672601}
{"yaw":0.053571283753860999,"roll":0.14753201097904201,"speed":0,"altitude":3.3470458984375,"xAccel":-6.6564604640007001,"longitude":174.80407599375999,"yAccel":-19.319218397140499,"latitude":-41.328529771455898,"date":1445310659.6998601,"zAccel":9.1520696878433192,"pitch":2.6175499300700902}
{"yaw":0.044116317307699597,"roll":0.14037081661957401,"speed":0,"altitude":3.3470458984375,"xAccel":0.73419343680143401,"longitude":174.80407599375999,"yAccel":-5.8695569634437597,"latitude":-41.328529771455898,"date":1445310659.9384301,"zAccel":3.57972271740437,"pitch":2.72681546354575}
{"yaw":0.0045138510447576604,"roll":-0.0144984010162538,"speed":0,"altitude":3.3470458984375,"xAccel":7.8061923384666398,"longitude":174.80407599375999,"yAccel":-2.9478410258889198,"latitude":-41.328529771455898,"date":1445310660.2000101,"zAccel":-6.90276995301247,"pitch":2.8744190588664198}
{"yaw":-0.087243403648980797,"roll":0.51329312310729003,"speed":0,"altitude":-1.6529541015625,"xAccel":9.1665104031562805,"longitude":174.80408362129199,"yAccel":-36.932319402694702,"latitude":-41.328587732316301,"date":1445310660.3733799,"zAccel":16.161370277404799,"pitch":2.9685114249248801}
{"yaw":0.225015530796149,"roll":0.44179528019104802,"speed":0,"altitude":-1.6529541015625,"xAccel":-28.938639163970901,"longitude":174.80408362129199,"yAccel":2.33173556625843,"latitude":-41.328587732316301,"date":1445310660.7374699,"zAccel":29.7186762094498,"pitch":3.0867216216447901}
{"yaw":0.20565033976547301,"roll":0.194870893455621,"speed":0,"altitude":-1.6529541015625,"xAccel":61.965000629424999,"longitude":174.80408362129199,"yAccel":0.27208011597394899,"latitude":-41.328587732316301,"date":1445310660.9324801,"zAccel":24.290296435356101,"pitch":3.0165883232107999}
{"yaw":0.220543243276039,"roll":0.179521589126897,"speed":0,"altitude":-1.6529541015625,"xAccel":0.328116142190993,"longitude":174.80408362129199,"yAccel":-20.4367235302925,"latitude":-41.328587732316301,"date":1445310661.0468199,"zAccel":-45.701652765273998,"pitch":-3.0819070199767999}
{"yaw":0.22153769123275199,"roll":0.20394216749025701,"speed":0,"altitude":-1.82525634765625,"xAccel":-2.4534676223993301,"longitude":174.80408362129199,"yAccel":-2.58371606469154,"latitude":-41.328587732316301,"date":1445310661.2525201,"zAccel":2.4946870282292402,"pitch":-3.1105603759351599}
{"yaw":0.251328799252718,"roll":0.23919495057047799,"speed":0,"altitude":-1.82525634765625,"xAccel":22.741435468196901,"longitude":174.80408362129199,"yAccel":-16.914793848991401,"latitude":-41.328587732316301,"date":1445310661.5215001,"zAccel":-102.986562252045,"pitch":3.0728450604181199}
{"yaw":-1.56074082075887,"roll":0.55238895293831602,"speed":0,"altitude":-1.82525634765625,"xAccel":-7.7816687524318704,"longitude":174.80408362129199,"yAccel":-10.3707633912563,"latitude":-41.328587732316301,"date":1445310661.82463,"zAccel":-32.591620087623603,"pitch":0.96996266146992505}
{"yaw":-1.9327184095444701,"roll":0.12849905484808,"speed":0,"altitude":-1.82525634765625,"xAccel":25.515988469123801,"longitude":174.80408362129199,"yAccel":1.3432808220386501,"latitude":-41.328587732316301,"date":1445310662.1081901,"zAccel":-3.6827765405178101,"pitch":1.13218487430082}
{"yaw":-1.8859963304218501,"roll":0.54947590149070402,"speed":0,"altitude":-2.877197265625,"xAccel":-4.5539189130067799,"longitude":174.80408362129199,"yAccel":35.5548948049545,"latitude":-41.328587732316301,"date":1445310662.40009,"zAccel":-22.573278844356501,"pitch":0.93331530737379698}
{"yaw":-3.0888300640573898,"roll":0.83159688015653699,"speed":0,"altitude":-2.877197265625,"xAccel":20.5957591533661,"longitude":174.80408362129199,"yAccel":43.0555015802383,"latitude":-41.328587732316301,"date":1445310662.54949,"zAccel":-10.593099892139399,"pitch":-1.0377142688113401}
{"yaw":2.8617525639222601,"roll":0.0084505090562627394,"speed":0,"altitude":-2.877197265625,"xAccel":15.9253016114235,"longitude":174.80408362129199,"yAccel":28.417092561721802,"latitude":-41.328587732316301,"date":1445310662.8352001,"zAccel":27.924630045890801,"pitch":-1.81705613448891}
{"yaw":-3.0939876687807799,"roll":-0.23602627761618,"speed":0,"altitude":-2.877197265625,"xAccel":-15.1580795645714,"longitude":174.80408362129199,"yAccel":35.214313864707897,"latitude":-41.328587732316301,"date":1445310662.951,"zAccel":24.873816967010502,"pitch":-1.81288320236159}
{"yaw":3.0878309572900302,"roll":-0.22152078421285701,"speed":0,"altitude":-2.877197265625,"xAccel":0.764245726168156,"longitude":174.80408362129199,"yAccel":2.0563075318932502,"latitude":-41.328587732316301,"date":1445310663.2000401,"zAccel":2.5702061131596601,"pitch":-1.5165018532271699}
{"yaw":2.96469881393796,"roll":-0.150297566431082,"speed":0,"altitude":-2.877197265625,"xAccel":-16.972136497497601,"longitude":174.80408362129199,"yAccel":-82.868367433548002,"latitude":-41.328587732316301,"date":1445310663.3524401,"zAccel":-33.441707491874702,"pitch":-1.27843675762408}
{"yaw":-2.2672390973796301,"roll":-0.38537886617619899,"speed":0,"altitude":-3.14013671875,"xAccel":0.429300451651216,"longitude":174.80408362129199,"yAccel":38.861891627311699,"latitude":-41.328587732316301,"date":1445310663.6124401,"zAccel":-29.717788100242601,"pitch":-1.3953886478902899}
{"yaw":-0.69730719732928703,"roll":-0.210333324553444,"speed":0,"altitude":-3.14013671875,"xAccel":-24.160754680633499,"longitude":174.80408362129199,"yAccel":-50.570768117904699,"latitude":-41.328587732316301,"date":1445310663.7680399,"zAccel":-21.851058304309799,"pitch":-1.54307763632197}
{"yaw":-0.88398790261731197,"roll":0.25686425296418902,"speed":0,"altitude":-3.14013671875,"xAccel":21.3292717933655,"longitude":174.80408362129199,"yAccel":61.438053846359303,"latitude":-41.328587732316301,"date":1445310663.9486799,"zAccel":-0.72618867270648502,"pitch":-1.4283605690232}
{"yaw":-0.88607343122625504,"roll":0.34952168061516198,"speed":0,"altitude":-4.108642578125,"xAccel":26.851961016655,"longitude":174.80408362129199,"yAccel":-0.88552413508296002,"latitude":-41.328587732316301,"date":1445310664.2092199,"zAccel":-12.8327533602715,"pitch":-1.2092284275634799}
{"yaw":-0.89773543421024404,"roll":0.20284175619322201,"speed":0,"altitude":-4.108642578125,"xAccel":13.8862088322639,"longitude":174.80408362129199,"yAccel":20.378290116786999,"latitude":-41.328587732316301,"date":1445310664.3635399,"zAccel":-14.982733130454999,"pitch":-1.33881731757941}
{"yaw":-1.7070519621354601,"roll":0.160588114614553,"speed":0,"altitude":-4.108642578125,"xAccel":20.765879750251798,"longitude":174.80408362129199,"yAccel":24.032284319400802,"latitude":-41.328587732316301,"date":1445310664.57162,"zAccel":21.941430866718299,"pitch":-1.56658465610344}
{"yaw":-2.9068073404109001,"roll":0.41163418941292002,"speed":0,"altitude":-4.108642578125,"xAccel":58.357924222946203,"longitude":174.80408362129199,"yAccel":55.053657293319702,"latitude":-41.328587732316301,"date":1445310664.8024199,"zAccel":-6.6812194883823404,"pitch":-1.40042075838154}
{"yaw":-1.81969404654833,"roll":-0.00058116109304481303,"speed":0,"altitude":-4.6805419921875,"xAccel":6.3963517546653703,"longitude":174.80408362129199,"yAccel":30.2569001913071,"latitude":-41.328587732316301,"date":1445310665.4259601,"zAccel":-11.7942444980145,"pitch":-1.4968385927647201}
{"yaw":-0.0155608216338888,"roll":-0.017272041550771298,"speed":0,"altitude":-4.6805419921875,"xAccel":-12.5394955277443,"longitude":174.80408362129199,"yAccel":-30.555513501167301,"latitude":-41.328587732316301,"date":1445310665.7402101,"zAccel":53.458893299102797,"pitch":-1.68000508336079}
{"yaw":-0.40499223798988798,"roll":0.024286622034155401,"speed":0,"altitude":-4.6805419921875,"xAccel":16.0438403487206,"longitude":174.80408362129199,"yAccel":26.8062889575958,"latitude":-41.328587732316301,"date":1445310665.99981,"zAccel":6.5119311213493303,"pitch":-1.66482940318884}
{"yaw":0.111403618443494,"roll":-0.13927709625422599,"speed":0,"altitude":-4.6805419921875,"xAccel":-68.046849966049194,"longitude":174.80408362129199,"yAccel":3.5944517701864198,"latitude":-41.328587732316301,"date":1445310666.1486001,"zAccel":39.232444763183601,"pitch":-1.54472884308096}
{"yaw":1.13732065815127,"roll":-0.23548692983001601,"speed":0,"altitude":-4.6805419921875,"xAccel":-28.292283415794401,"longitude":174.80408362129199,"yAccel":-48.093396425247199,"latitude":-41.328587732316301,"date":1445310666.38153,"zAccel":41.223090887069702,"pitch":-1.87007813036643}
{"yaw":0.033253464237051999,"roll":-0.83511116961783705,"speed":0,"altitude":-4.55035400390625,"xAccel":177.31094360351599,"longitude":174.80408362129199,"yAccel":100.26524066925001,"latitude":-41.328587732316301,"date":1445310666.6928101,"zAccel":100.97035169601401,"pitch":-1.4910621246609601}
{"yaw":1.14459903968813,"roll":-1.16711212539821,"speed":0,"altitude":-4.55035400390625,"xAccel":-41.682767868041999,"longitude":174.80408362129199,"yAccel":84.530091285705595,"latitude":-41.328587732316301,"date":1445310666.9000001,"zAccel":39.231267571449301,"pitch":-2.92992623023083}
{"yaw":-1.6557991321340899,"roll":-1.32047429550632,"speed":0,"altitude":-4.55035400390625,"xAccel":-27.3489683866501,"longitude":174.80408362129199,"yAccel":-14.155854284763301,"latitude":-41.328587732316301,"date":1445310667.2116799,"zAccel":-7.88850337266922,"pitch":-0.63686443278933103}
{"yaw":-2.5986152822367301,"roll":-1.3476584278692001,"speed":0,"altitude":-4.55035400390625,"xAccel":29.424709081649802,"longitude":174.80408362129199,"yAccel":63.525199890136697,"latitude":-41.328587732316301,"date":1445310667.39957,"zAccel":23.152238130569501,"pitch":-0.23587332885075299}
{"yaw":-2.5232590180861698,"roll":-1.1530069711828299,"speed":0,"altitude":-4.60595703125,"xAccel":-27.050971984863299,"longitude":174.80408362129199,"yAccel":-1.2203487567603599,"latitude":-41.328587732316301,"date":1445310667.54919,"zAccel":-18.7015518546104,"pitch":-0.39770993026514001}
{"yaw":-2.3238470577285399,"roll":-0.88064806458640799,"speed":0,"altitude":-4.60595703125,"xAccel":-19.943532347679099,"longitude":174.80408362129199,"yAccel":68.754678964614897,"latitude":-41.328587732316301,"date":1445310667.8080399,"zAccel":-84.313344955444293,"pitch":-0.39150617293517198}
{"yaw":-2.3405814211109099,"roll":-0.62704712556826203,"speed":0,"altitude":-4.60595703125,"xAccel":7.7687777578830701,"longitude":174.80408362129199,"yAccel":34.405231475830099,"latitude":-41.328587732316301,"date":1445310667.96383,"zAccel":-26.404842734336899,"pitch":-1.04623245914815}
{"yaw":-2.1387415322952501,"roll":-0.24751643189158701,"speed":0,"altitude":-4.60595703125,"xAccel":-18.348866701126099,"longitude":174.80408362129199,"yAccel":-38.6251717805862,"latitude":-41.328587732316301,"date":1445310668.20362,"zAccel":82.494562864303603,"pitch":-1.56433778082727}
{"yaw":-2.6345341241976299,"roll":-0.243756717992753,"speed":0,"altitude":-4.95745849609375,"xAccel":-26.608449220657299,"longitude":174.80408362129199,"yAccel":48.775643110275297,"latitude":-41.328587732316301,"date":1445310668.5348799,"zAccel":50.223988294601398,"pitch":-0.77663894166342495}
{"yaw":-2.0231590291935899,"roll":-0.22280181116886,"speed":0,"altitude":-4.95745849609375,"xAccel":16.5404751896858,"longitude":174.80408362129199,"yAccel":21.1076080799103,"latitude":-41.328587732316301,"date":1445310668.81917,"zAccel":5.3462050855159804,"pitch":-0.40341365965430798}
{"yaw":-2.0610621317090199,"roll":0.094294930255882495,"speed":0,"altitude":-4.95745849609375,"xAccel":-2.3276386782527001,"longitude":174.80408362129199,"yAccel":-23.015226423740401,"latitude":-41.328587732316301,"date":1445310669.0278399,"zAccel":73.698401451110797,"pitch":-1.2081430981894401}
{"yaw":-1.69162373715647,"roll":0.14663046861779699,"speed":0,"altitude":-4.95745849609375,"xAccel":61.542016267776503,"longitude":174.80408362129199,"yAccel":-12.599320709705401,"latitude":-41.328587732316301,"date":1445310669.2116799,"zAccel":19.610407948494,"pitch":-1.4308716950649401}
{"yaw":-1.4258658596415901,"roll":0.51977484439139698,"speed":1.1160000085830699,"altitude":-5.6189880371093803,"xAccel":-13.0832970142365,"longitude":174.80408873425301,"yAccel":-79.1230916976929,"latitude":-41.328615644053897,"date":1445310669.4152801,"zAccel":-113.490414619446,"pitch":-0.89007547429376799}
{"yaw":-0.67529189907965403,"roll":0.57315523233554799,"speed":1.1160000085830699,"altitude":-5.6189880371093803,"xAccel":55.156308412551901,"longitude":174.80408873425301,"yAccel":-19.051828980445901,"latitude":-41.328615644053897,"date":1445310669.5989101,"zAccel":103.987073898315,"pitch":-0.88628446122346305}
{"yaw":-0.62564871659816701,"roll":0.55951742326944598,"speed":1.1160000085830699,"altitude":-5.6189880371093803,"xAccel":-28.277558088302602,"longitude":174.80408873425301,"yAccel":35.083839297294602,"latitude":-41.328615644053897,"date":1445310669.7530701,"zAccel":235.51292419433599,"pitch":-0.72779979414681695}
{"yaw":-0.85456253572079699,"roll":-0.024788560387767999,"speed":1.1160000085830699,"altitude":-5.6189880371093803,"xAccel":0.71048471145331904,"longitude":174.80408873425301,"yAccel":52.613329887390101,"latitude":-41.328615644053897,"date":1445310669.9616101,"zAccel":102.833580970764,"pitch":-0.92985965328235698}
{"yaw":-0.64163247205511598,"roll":-0.50716251114234001,"speed":1.1160000085830699,"altitude":-5.6189880371093803,"xAccel":27.675229310989401,"longitude":174.80408873425301,"yAccel":39.790382981300397,"latitude":-41.328615644053897,"date":1445310670.1998,"zAccel":39.939168095588698,"pitch":-1.4244031052584301}
{"yaw":-0.78655415335438605,"roll":-0.61112413303816804,"speed":0,"altitude":-5.0525817871093803,"xAccel":-26.243290305137599,"longitude":174.80408873425301,"yAccel":-25.620278716087299,"latitude":-41.328615644053897,"date":1445310670.5069001,"zAccel":-42.369711399078398,"pitch":-1.3215423313775401}
{"yaw":-0.629069967524444,"roll":-0.43994267498309803,"speed":0,"altitude":-5.0525817871093803,"xAccel":-14.320327341556499,"longitude":174.80408873425301,"yAccel":-46.240288019180298,"latitude":-41.328615644053897,"date":1445310670.8176899,"zAccel":84.239393472671495,"pitch":-2.0581829246836998}
{"yaw":-0.44455763107756202,"roll":-0.47130758459243699,"speed":0,"altitude":-5.0525817871093803,"xAccel":7.8754700720310202,"longitude":174.80408873425301,"yAccel":39.088493585586498,"latitude":-41.328615644053897,"date":1445310671.0276999,"zAccel":-10.887514054775201,"pitch":-1.6488973515960501}
{"yaw":-0.72135324308018001,"roll":-0.80201422804181599,"speed":0,"altitude":-5.0525817871093803,"xAccel":-69.509160518646198,"longitude":174.80408873425301,"yAccel":-30.422797799110398,"latitude":-41.328615644053897,"date":1445310671.2601399,"zAccel":154.58874702453599,"pitch":-1.2403130220881899}
{"yaw":-1.5458224080454599,"roll":-0.27207974694847098,"speed":0,"altitude":-5.0525817871093803,"xAccel":37.687936425209003,"longitude":174.80408873425301,"yAccel":103.578674793243,"latitude":-41.328615644053897,"date":1445310671.44257,"zAccel":-20.347598195075999,"pitch":0.60004129096648795}
{"yaw":-1.0952900121185301,"roll":0.017579865360122598,"speed":0,"altitude":-6.1258239746093803,"xAccel":-2.28263139724731,"longitude":174.80408873425301,"yAccel":99.386793375015301,"latitude":-41.328615644053897,"date":1445310671.72806,"zAccel":-40.861669182777398,"pitch":1.36694673212412}
{"yaw":-1.4584555202765199,"roll":-0.041190146096210203,"speed":0,"altitude":-6.1258239746093803,"xAccel":63.6967837810516,"longitude":174.80408873425301,"yAccel":205.86872100830101,"latitude":-41.328615644053897,"date":1445310672.01512,"zAccel":18.987165391445199,"pitch":1.21132646060419}
{"yaw":-1.48387096826528,"roll":-0.052245902076942401,"speed":0,"altitude":-6.1258239746093803,"xAccel":16.547501087188699,"longitude":174.80408873425301,"yAccel":10.042756050825099,"latitude":-41.328615644053897,"date":1445310672.14468,"zAccel":27.0487397909164,"pitch":1.0830724351599399}
{"yaw":-1.4873612006639101,"roll":0.0130698988822256,"speed":0,"altitude":-6.3662414550781197,"xAccel":3.6384955048561101,"longitude":174.80408873425301,"yAccel":7.7403970062732697,"latitude":-41.328615644053897,"date":1445310672.3515501,"zAccel":12.067262083292,"pitch":1.1309040247847699}
{"yaw":-1.41058934283203,"roll":0.018587483444378002,"speed":0,"altitude":-6.3662414550781197,"xAccel":-6.4223036170005798,"longitude":174.80408873425301,"yAccel":16.184121370315601,"latitude":-41.328615644053897,"date":1445310672.6122501,"zAccel":4.7886181622743598,"pitch":1.6841146951857699}
{"yaw":-1.3798212687312601,"roll":0.045712823508562303,"speed":0,"altitude":-6.3662414550781197,"xAccel":-8.9556999504566193,"longitude":174.80408873425301,"yAccel":13.482992351055101,"latitude":-41.328615644053897,"date":1445310672.7418499,"zAccel":-31.097549200058001,"pitch":1.5676483617406101}
{"yaw":-1.3566663130465599,"roll":0.118924735922947,"speed":0,"altitude":-6.3662414550781197,"xAccel":3.8200270384550099,"longitude":174.80408873425301,"yAccel":-20.852868258953102,"latitude":-41.328615644053897,"date":1445310672.9757099,"zAccel":5.3399343043565803,"pitch":1.63134340353061}
{"yaw":-1.3304571942049599,"roll":0.0969983021991878,"speed":0,"altitude":-6.3662414550781197,"xAccel":-17.239506542682602,"longitude":174.80408873425301,"yAccel":-1.3919522054493401,"latitude":-41.328615644053897,"date":1445310673.05404,"zAccel":22.015246748924302,"pitch":1.70112324870951}
{"yaw":-1.33101359056694,"roll":0.102998865970617,"speed":2.2679999828338602,"altitude":-4.77130126953125,"xAccel":1.4010694809258,"longitude":174.80409158410001,"yAccel":1.8736416473984701,"latitude":-41.328598880247498,"date":1445310673.2119401,"zAccel":19.1204473376274,"pitch":1.59891498736515}
{"yaw":-1.31934696769862,"roll":0.082032145144509003,"speed":2.2679999828338602,"altitude":-4.77130126953125,"xAccel":-15.026807785034199,"longitude":174.80409158410001,"yAccel":-2.7487520128488501,"latitude":-41.328598880247498,"date":1445310673.2450399,"zAccel":7.6002582907676697,"pitch":1.53491520283686}
{"yaw":-1.34569406313373,"roll":0.078599001995252202,"speed":2.2679999828338602,"altitude":-4.77130126953125,"xAccel":18.633669614791899,"longitude":174.80409158410001,"yAccel":-6.1002753674983996,"latitude":-41.328598880247498,"date":1445310673.34079,"zAccel":19.702391326427499,"pitch":1.5161442895711099}
{"yaw":-1.36696425318132,"roll":0.091465530994282507,"speed":2.2679999828338602,"altitude":-4.77130126953125,"xAccel":14.7688761353493,"longitude":174.80409158410001,"yAccel":8.8246665894985199,"latitude":-41.328598880247498,"date":1445310673.49984,"zAccel":6.8957887589931497,"pitch":1.51280095125197}
{"yaw":-1.35503615494845,"roll":0.073991647838146199,"speed":2.2679999828338602,"altitude":-4.77130126953125,"xAccel":-5.4387006908655202,"longitude":174.80409158410001,"yAccel":16.5154963731766,"latitude":-41.328598880247498,"date":1445310673.54914,"zAccel":11.5573957562447,"pitch":1.5030123346111799}
{"yaw":-1.3514199527988,"roll":0.071029438596276404,"speed":2.2679999828338602,"altitude":-4.77130126953125,"xAccel":24.446216225624099,"longitude":174.80409158410001,"yAccel":-6.3874892890453303,"latitude":-41.328598880247498,"date":1445310673.65329,"zAccel":4.2064677923917797,"pitch":1.52456271253258}
{"yaw":-1.37268272742664,"roll":0.028753149738918501,"speed":2.2679999828338602,"altitude":-4.77130126953125,"xAccel":15.762491524219501,"longitude":174.80409158410001,"yAccel":-2.3619510233402301,"latitude":-41.328598880247498,"date":1445310673.8095901,"zAccel":3.7212334573268899,"pitch":1.5586411536749201}
{"yaw":-1.39326451803476,"roll":0.035071081666243502,"speed":2.2679999828338602,"altitude":-4.77130126953125,"xAccel":35.056987404823303,"longitude":174.80409158410001,"yAccel":-7.7892869710922197,"latitude":-41.328598880247498,"date":1445310673.86181,"zAccel":-12.0341330766678,"pitch":1.61448195097206}
{"yaw":-1.3506230823026499,"roll":0.046985481153493498,"speed":2.2679999828338602,"altitude":-4.77130126953125,"xAccel":-12.9667550325394,"longitude":174.80409158410001,"yAccel":-0.207818113267422,"latitude":-41.328598880247498,"date":1445310674.00176,"zAccel":11.9738660752773,"pitch":1.5921104120287399}
{"yaw":-1.32729664857493,"roll":0.078504743279634304,"speed":6.6240001201629601,"altitude":-3.48016357421875,"xAccel":16.896978020668001,"longitude":174.80408278310199,"yAccel":11.6609022021294,"latitude":-41.328583625183697,"date":1445310674.09987,"zAccel":0.77266735024750199,"pitch":1.63534607696932}
{"yaw":-1.25290714232665,"roll":0.119561601596473,"speed":6.6240001201629601,"altitude":-3.48016357421875,"xAccel":3.5201020538806902,"longitude":174.80408278310199,"yAccel":36.801636219024701,"latitude":-41.328583625183697,"date":1445310674.1477301,"zAccel":18.0091544985771,"pitch":1.6707577836159}
{"yaw":-1.2152301885061001,"roll":0.12753286864502,"speed":6.6240001201629601,"altitude":-3.48016357421875,"xAccel":6.5313048660755202,"longitude":174.80408278310199,"yAccel":-7.4891231954097703,"latitude":-41.328583625183697,"date":1445310674.2522199,"zAccel":17.314219474792498,"pitch":1.7454426893655199}
{"yaw":-1.1410116786069,"roll":0.15217253617931001,"speed":6.6240001201629601,"altitude":-3.48016357421875,"xAccel":-16.567482054233601,"longitude":174.80408278310199,"yAccel":-14.296254515647901,"latitude":-41.328583625183697,"date":1445310674.4096701,"zAccel":-3.7311967462301299,"pitch":1.7536437491174801}
{"yaw":-1.14536305958691,"roll":0.14585848354596501,"speed":6.6240001201629601,"altitude":-3.48016357421875,"xAccel":1.48486867547035,"longitude":174.80408278310199,"yAccel":4.8785228282213202,"latitude":-41.328583625183697,"date":1445310674.46052,"zAccel":1.9782461225986501,"pitch":1.7772480849027601}
{"yaw":-1.2279784027776,"roll":0.135336392960272,"speed":6.6240001201629601,"altitude":-3.48016357421875,"xAccel":-9.6643745899200404,"longitude":174.80408278310199,"yAccel":7.1676746010780299,"latitude":-41.328583625183697,"date":1445310674.54737,"zAccel":18.023100495338401,"pitch":1.7402724379471399}
{"yaw":-1.25390000422274,"roll":0.112116691801854,"speed":6.6240001201629601,"altitude":-3.48016357421875,"xAccel":-10.1832650601864,"longitude":174.80408278310199,"yAccel":-7.4855022132396698,"latitude":-41.328583625183697,"date":1445310674.6998701,"zAccel":4.8562925308942804,"pitch":1.8200919956730599}
{"yaw":-1.3821976318203599,"roll":0.133388248142842,"speed":6.6240001201629601,"altitude":-3.48016357421875,"xAccel":4.11351397633553,"longitude":174.80408278310199,"yAccel":-21.4962229132652,"latitude":-41.328583625183697,"date":1445310674.7471001,"zAccel":9.8561719059944206,"pitch":1.76304232951519}
{"yaw":-1.48826187014288,"roll":0.113829268325396,"speed":6.6240001201629601,"altitude":-3.48016357421875,"xAccel":-1.9991828128695499,"longitude":174.80408278310199,"yAccel":-0.090385385556146502,"latitude":-41.328583625183697,"date":1445310674.8511701,"zAccel":9.5171019434928894,"pitch":1.72202243391708}
{"yaw":-1.4767392557389001,"roll":0.100054942143703,"speed":6.6240001201629601,"altitude":-3.48016357421875,"xAccel":17.749428749084501,"longitude":174.80408278310199,"yAccel":15.5016541481018,"latitude":-41.328583625183697,"date":1445310675.0116501,"zAccel":6.0209285467863101,"pitch":1.63517124249218}
{"yaw":-1.45653068346392,"roll":0.079163569549286203,"speed":6.6240001201629601,"altitude":-3.48016357421875,"xAccel":8.0454200506210292,"longitude":174.80408278310199,"yAccel":1.4553021639585499,"latitude":-41.328583625183697,"date":1445310675.04215,"zAccel":9.2583104968071002,"pitch":1.5703145703567001}
{"yaw":-1.4400533362660299,"roll":0.034940934306752998,"speed":6.6240001201629601,"altitude":-4.54913330078125,"xAccel":12.804295122623399,"longitude":174.80407255718001,"yAccel":7.3879726231098202,"latitude":-41.3285875227687,"date":1445310675.1677499,"zAccel":15.3467103838921,"pitch":1.4970091608735001}
{"yaw":-1.39771137923361,"roll":-0.0151743753659622,"speed":6.6240001201629601,"altitude":-4.54913330078125,"xAccel":8.8082432746887207,"longitude":174.80407255718001,"yAccel":-1.7511298879981001,"latitude":-41.3285875227687,"date":1445310675.3203001,"zAccel":16.973063349723802,"pitch":1.48770576885075}
{"yaw":-1.3853062338117901,"roll":-0.030947035215763901,"speed":6.6240001201629601,"altitude":-4.54913330078125,"xAccel":-9.1488972306251508,"longitude":174.80407255718001,"yAccel":15.5236288905144,"latitude":-41.3285875227687,"date":1445310675.4502201,"zAccel":10.6413871049881,"pitch":1.53761608358264}
{"yaw":-1.3751190658083301,"roll":-0.0095217803692300099,"speed":6.6240001201629601,"altitude":-4.54913330078125,"xAccel":-2.9815826565027201,"longitude":174.80407255718001,"yAccel":-12.6217946410179,"latitude":-41.3285875227687,"date":1445310675.60672,"zAccel":21.264077723026301,"pitch":1.5526003196202001}
{"yaw":-1.43470408648448,"roll":-0.017764647681036701,"speed":6.6240001201629601,"altitude":-4.54913330078125,"xAccel":4.9695394933223698,"longitude":174.80407255718001,"yAccel":-10.1872488856316,"latitude":-41.3285875227687,"date":1445310675.65887,"zAccel":8.1330791115760803,"pitch":1.6146419742857401}
{"yaw":-1.45880921097799,"roll":-0.022089127555537699,"speed":6.6240001201629601,"altitude":-4.54913330078125,"xAccel":-2.1248098462820102,"longitude":174.80407255718001,"yAccel":-1.59236416220665,"latitude":-41.3285875227687,"date":1445310675.76228,"zAccel":4.2791608721017802,"pitch":1.67517362531915}
{"yaw":-1.4639766724935099,"roll":-0.022209816108147699,"speed":6.6240001201629601,"altitude":-4.54913330078125,"xAccel":-2.0148053765296901,"longitude":174.80407255718001,"yAccel":0.43121040798723698,"latitude":-41.3285875227687,"date":1445310675.9026301,"zAccel":2.7721596881747201,"pitch":1.73480579406712}
{"yaw":-1.4606398798120299,"roll":-0.036670427821802902,"speed":6.6240001201629601,"altitude":-4.54913330078125,"xAccel":2.0741354674100898,"longitude":174.80407255718001,"yAccel":2.3012112826108901,"latitude":-41.3285875227687,"date":1445310675.9444599,"zAccel":4.3654602020978901,"pitch":1.70544757965486}
{"yaw":-1.4572547336083701,"roll":-0.0484594938058652,"speed":6.6240001201629601,"altitude":-4.54913330078125,"xAccel":0.93902805820107504,"longitude":174.80407255718001,"yAccel":0.50708591006696202,"latitude":-41.3285875227687,"date":1445310676.04877,"zAccel":4.9503073096275303,"pitch":1.7029459231883499}
{"yaw":-1.4468271488981099,"roll":-0.045940874497801397,"speed":6.6240001201629601,"altitude":-4.33758544921875,"xAccel":-4.3056063354015404,"longitude":174.804076077579,"yAccel":-4.3113242834806398,"latitude":-41.328572141976402,"date":1445310676.20416,"zAccel":-7.7167220413684801,"pitch":1.7294613044301399}
{"yaw":-1.4230691376161,"roll":-0.044129550733110298,"speed":6.6240001201629601,"altitude":-4.33758544921875,"xAccel":18.105871975421898,"longitude":174.804076077579,"yAccel":3.1296312808990501,"latitude":-41.328572141976402,"date":1445310676.24702,"zAccel":14.864665269851701,"pitch":1.7139978503592701}
{"yaw":-1.31888269491288,"roll":-0.088458159848775406,"speed":6.6240001201629601,"altitude":-4.33758544921875,"xAccel":-4.3741401284933099,"longitude":174.804076077579,"yAccel":3.8807347416877702,"latitude":-41.328572141976402,"date":1445310676.4384,"zAccel":6.9199778139591199,"pitch":1.58489115526886}
{"yaw":-1.29129137760768,"roll":-0.082539123757424504,"speed":6.6240001201629601,"altitude":-4.33758544921875,"xAccel":-10.7439331710339,"longitude":174.804076077579,"yAccel":19.140626490116102,"latitude":-41.328572141976402,"date":1445310676.5746601,"zAccel":1.6440689563751201,"pitch":1.4963541690242399}
{"yaw":-1.2929520594509301,"roll":-0.035983471765143701,"speed":6.6240001201629601,"altitude":-4.33758544921875,"xAccel":8.64150375127792,"longitude":174.804076077579,"yAccel":9.2096000909805298,"latitude":-41.328572141976402,"date":1445310676.64711,"zAccel":-1.5045790001749999,"pitch":1.4265722117238}
{"yaw":-1.31777635304357,"roll":-0.0131931351660848,"speed":6.6240001201629601,"altitude":-4.33758544921875,"xAccel":-7.4121095240116102,"longitude":174.804076077579,"yAccel":15.3154402971268,"latitude":-41.328572141976402,"date":1445310676.8045399,"zAccel":2.6951873674988698,"pitch":1.3901631275552599}
{"yaw":-1.3466458786967399,"roll":0.016607640686562199,"speed":6.6240001201629601,"altitude":-4.33758544921875,"xAccel":-4.3466974049806604,"longitude":174.804076077579,"yAccel":0.77228737063705899,"latitude":-41.328572141976402,"date":1445310676.9586101,"zAccel":0.49327299930155299,"pitch":1.3788164094997899}
{"yaw":-1.3644760082101199,"roll":0.034749972064847798,"speed":6.6240001201629601,"altitude":-4.33758544921875,"xAccel":-9.2103332281112706,"longitude":174.804076077579,"yAccel":0.47603524290025201,"latitude":-41.328572141976402,"date":1445310677.1380701,"zAccel":3.13203148543835,"pitch":1.3705741875509601}
{"yaw":-1.41172087793593,"roll":0.065254924273459899,"speed":2.9519999742507901,"altitude":-4.10101318359375,"xAccel":0.63707320950925395,"longitude":174.80407716722701,"yAccel":-0.72722476907074496,"latitude":-41.328573105895302,"date":1445310677.27754,"zAccel":5.8099579066038096,"pitch":1.4027594236410701}
{"yaw":-1.43065183943818,"roll":0.075641296987035894,"speed":2.9519999742507901,"altitude":-4.10101318359375,"xAccel":-1.0337796062231099,"longitude":174.80407716722701,"yAccel":6.0037542134523401,"latitude":-41.328573105895302,"date":1445310677.4031501,"zAccel":5.9362299740314501,"pitch":1.41723489170554}
{"yaw":-1.45781537986558,"roll":0.059978430792451097,"speed":2.9519999742507901,"altitude":-4.10101318359375,"xAccel":2.8417818248271902,"longitude":174.80407716722701,"yAccel":-2.03844979405403,"latitude":-41.328573105895302,"date":1445310677.60762,"zAccel":-1.7603091895580301,"pitch":1.42905195658738}
{"yaw":-1.4822941529407501,"roll":0.037243432824400902,"speed":2.9519999742507901,"altitude":-4.10101318359375,"xAccel":-2.7660805732011799,"longitude":174.80407716722701,"yAccel":1.3934877701103701,"latitude":-41.328573105895302,"date":1445310677.7632401,"zAccel":0.64639216288924195,"pitch":1.44189624194906}
{"yaw":-1.5045850289107501,"roll":0.031423642512797202,"speed":2.9519999742507901,"altitude":-4.10101318359375,"xAccel":9.2667251825332606,"longitude":174.80407716722701,"yAccel":-1.81846302002668,"latitude":-41.328573105895302,"date":1445310677.8415699,"zAccel":4.0923293679952604,"pitch":1.4376927037476299}
{"yaw":-1.5211774937270599,"roll":0.0120301257527217,"speed":2.9519999742507901,"altitude":-4.10101318359375,"xAccel":6.2963671982288396,"longitude":174.80407716722701,"yAccel":-3.69311459362507,"latitude":-41.328573105895302,"date":1445310677.99983,"zAccel":1.4170264825224901,"pitch":1.43173783038578}
{"yaw":-1.5471788996642699,"roll":-0.0164792258423056,"speed":1.4759999871253999,"altitude":-4.0784912109375,"xAccel":-2.7800502255558999,"longitude":174.80407901124499,"yAccel":-0.80590257421135902,"latitude":-41.328576626294598,"date":1445310678.20596,"zAccel":-0.99415332078933705,"pitch":1.4149398197509899}
{"yaw":-1.55568120869116,"roll":-0.022272790667266801,"speed":1.4759999871253999,"altitude":-4.0784912109375,"xAccel":-2.29728538542986,"longitude":174.80407901124499,"yAccel":-2.64394301921129,"latitude":-41.328576626294598,"date":1445310678.3445301,"zAccel":-2.3729166015982601,"pitch":1.4155001877126501}
{"yaw":-1.5521457659338,"roll":-0.061635697785790103,"speed":1.4759999871253999,"altitude":-4.0784912109375,"xAccel":-4.1149903088808104,"longitude":174.80407901124499,"yAccel":1.44037157297134,"latitude":-41.328576626294598,"date":1445310678.46629,"zAccel":1.85635071247816,"pitch":1.38860771908682}
{"yaw":-1.55632447450386,"roll":-0.096625098057038103,"speed":1.4759999871253999,"altitude":-4.0784912109375,"xAccel":3.5162761807441698,"longitude":174.80407901124499,"yAccel":6.07744604349136,"latitude":-41.328576626294598,"date":1445310678.6291101,"zAccel":1.31727466359735,"pitch":1.3778545204666499}
{"yaw":-1.56520921518876,"roll":-0.180466007027622,"speed":1.4759999871253999,"altitude":-4.0784912109375,"xAccel":-2.8014032170176502,"longitude":174.80407901124499,"yAccel":-0.0204320516786538,"latitude":-41.328576626294598,"date":1445310678.75195,"zAccel":-3.7939358502626401,"pitch":1.3812174218047799}
{"yaw":-1.5502033910466499,"roll":-0.20737372580459601,"speed":1.4759999871253999,"altitude":-4.0784912109375,"xAccel":22.010426223277999,"longitude":174.80407901124499,"yAccel":3.0343394726514799,"latitude":-41.328576626294598,"date":1445310678.9072399,"zAccel":9.8744615912437403,"pitch":1.37954502524214}
{"yaw":-1.5048176587281901,"roll":-0.2432176690351,"speed":1.4759999871253999,"altitude":-4.0784912109375,"xAccel":6.0274850577116004,"longitude":174.80407901124499,"yAccel":6.1540462076663998,"latitude":-41.328576626294598,"date":1445310679.0638199,"zAccel":4.9738679081201598,"pitch":1.4153404634517199}
{"yaw":-1.4563280558804801,"roll":-0.23424604414380901,"speed":1.44000002145767,"altitude":-4.418701171875,"xAccel":6.8244315683841696,"longitude":174.80409233847101,"yAccel":-4.4409833848476401,"latitude":-41.3285968685908,"date":1445310679.24494,"zAccel":9.6148662269115395,"pitch":1.44022487462907}
{"yaw":-1.3390403113815501,"roll":-0.196551994214621,"speed":1.44000002145767,"altitude":-4.418701171875,"xAccel":2.73673683404922,"longitude":174.80409233847101,"yAccel":1.7679471522569701,"latitude":-41.3285968685908,"date":1445310679.34903,"zAccel":8.3056323230266607,"pitch":1.4425896356472201}
{"yaw":-1.2772447617765099,"roll":-0.17282072275018801,"speed":1.44000002145767,"altitude":-4.418701171875,"xAccel":-11.7304749786854,"longitude":174.80409233847101,"yAccel":-6.4922437071800196,"latitude":-41.3285968685908,"date":1445310679.50547,"zAccel":1.69922523200512,"pitch":1.4492234391364001}
{"yaw":-1.1722271988219,"roll":-0.086038970217534996,"speed":1.44000002145767,"altitude":-4.418701171875,"xAccel":-1.5238886699080501,"longitude":174.80409233847101,"yAccel":-10.8648627996445,"latitude":-41.3285968685908,"date":1445310679.6616001,"zAccel":4.17204573750496,"pitch":1.4352410437379799}
{"yaw":-1.1374819010897099,"roll":-0.026443467866865002,"speed":1.44000002145767,"altitude":-4.418701171875,"xAccel":-0.45745414681732699,"longitude":174.80409233847101,"yAccel":3.8729168474674198,"latitude":-41.3285968685908,"date":1445310679.79983,"zAccel":5.5485565215349197,"pitch":1.42066441980004}
{"yaw":-1.1344993003372099,"roll":-0.0031378382841933598,"speed":1.44000002145767,"altitude":-4.418701171875,"xAccel":4.2608015239238703,"longitude":174.80409233847101,"yAccel":-10.2815918624401,"latitude":-41.3285968685908,"date":1445310679.9509499,"zAccel":-0.62252860516309705,"pitch":1.4251552418892}
{"yaw":-1.1425612741536699,"roll":0.050734529862596703,"speed":1.44000002145767,"altitude":-4.418701171875,"xAccel":-7.2456181049346897,"longitude":174.80409233847101,"yAccel":0.63229482620954502,"latitude":-41.3285968685908,"date":1445310680.10447,"zAccel":-3.0125319957733199,"pitch":1.4229234573706699}
{"yaw":-1.1165053874148501,"roll":0.125137162627214,"speed":1.44000002145767,"altitude":-6.8008728027343803,"xAccel":3.9865147322416301,"longitude":174.80408487857801,"yAccel":5.6304488331079501,"latitude":-41.328599383161702,"date":1445310680.26003,"zAccel":4.0798559784889203,"pitch":1.45105790403028}
{"yaw":-1.10894397718372,"roll":0.159735032844949,"speed":1.44000002145767,"altitude":-6.8008728027343803,"xAccel":12.190146744251299,"longitude":174.80408487857801,"yAccel":5.79654760658741,"latitude":-41.328599383161702,"date":1445310680.41626,"zAccel":1.0062406770885,"pitch":1.4685568271581899}
{"yaw":-1.0985970572203001,"roll":0.20504729922885601,"speed":1.44000002145767,"altitude":-6.8008728027343803,"xAccel":3.0243108049035099,"longitude":174.80408487857801,"yAccel":-0.50674565136432603,"latitude":-41.328599383161702,"date":1445310680.5757699,"zAccel":3.2275442034006101,"pitch":1.49177785193773}
{"yaw":-1.0829989900525401,"roll":0.22674476925819501,"speed":1.44000002145767,"altitude":-6.8008728027343803,"xAccel":-2.7924511581659299,"longitude":174.80408487857801,"yAccel":2.3525862023234398,"latitude":-41.328599383161702,"date":1445310680.7546699,"zAccel":0.412619579583406,"pitch":1.5034625474621499}
{"yaw":-1.0764776863090699,"roll":0.25364485167380801,"speed":1.44000002145767,"altitude":-6.8008728027343803,"xAccel":-5.39825335144997,"longitude":174.80408487857801,"yAccel":-11.238081753253899,"latitude":-41.328599383161702,"date":1445310680.8415201,"zAccel":0.753309857100248,"pitch":1.51631858865576}
{"yaw":-1.06813469687346,"roll":0.29748156887440702,"speed":1.44000002145767,"altitude":-6.8008728027343803,"xAccel":-2.5078205391764601,"longitude":174.80408487857801,"yAccel":0.194985407870263,"latitude":-41.328599383161702,"date":1445310681.0134799,"zAccel":-9.5045424997806496,"pitch":1.53655755708397}
{"yaw":-1.07208120542384,"roll":0.307092433441079,"speed":1.44000002145767,"altitude":-6.8008728027343803,"xAccel":2.7324998751282701,"longitude":174.80408487857801,"yAccel":-1.82132683694363,"latitude":-41.328599383161702,"date":1445310681.1445,"zAccel":4.3977286666631699,"pitch":1.5541811138111701}
{"yaw":-1.1169386093418601,"roll":0.30875119912161098,"speed":1.1160000085830699,"altitude":-6.8650207519531197,"xAccel":-27.755177021026601,"longitude":174.80408093908301,"yAccel":-1.96224618703127,"latitude":-41.328598712609498,"date":1445310681.30003,"zAccel":6.6104516386985797,"pitch":1.5821556241996499}
{"yaw":-1.11535586249664,"roll":0.25963805054626798,"speed":1.1160000085830699,"altitude":-6.8650207519531197,"xAccel":13.125772774219501,"longitude":174.80408093908301,"yAccel":4.1530814021825799,"latitude":-41.328598712609498,"date":1445310681.45631,"zAccel":6.3051946461200696,"pitch":1.5478571368288601}
{"yaw":-1.1589430294923999,"roll":0.110000483399623,"speed":1.1160000085830699,"altitude":-6.8650207519531197,"xAccel":7.2150610387325296,"longitude":174.80408093908301,"yAccel":-1.41256470233202,"latitude":-41.328598712609498,"date":1445310681.61167,"zAccel":4.02643755078316,"pitch":1.52389183393063}
{"yaw":-1.17388865742258,"roll":0.074448838047749197,"speed":1.1160000085830699,"altitude":-6.8650207519531197,"xAccel":20.7757160067558,"longitude":174.80408093908301,"yAccel":-1.7067546024918601,"latitude":-41.328598712609498,"date":1445310681.7421999,"zAccel":0.23736758157610899,"pitch":1.5125050386363701}
{"yaw":-1.20128132435998,"roll":0.036945097219243703,"speed":1.1160000085830699,"altitude":-6.8650207519531197,"xAccel":-0.48113535158336201,"longitude":174.80408093908301,"yAccel":17.5814524292946,"latitude":-41.328598712609498,"date":1445310681.8998499,"zAccel":4.2948901653289804,"pitch":1.5245247898093599}
{"yaw":-1.26074565789233,"roll":0.022896537030095102,"speed":1.1160000085830699,"altitude":-6.3159484863281197,"xAccel":6.5222419798374203,"longitude":174.80407817305499,"yAccel":-10.486742854118299,"latitude":-41.328596784771698,"date":1445310682.13288,"zAccel":3.3375203609466602,"pitch":1.5505607204338301}
{"yaw":-1.2655626692582,"roll":-0.0068866846283566303,"speed":1.1160000085830699,"altitude":-6.3159484863281197,"xAccel":-0.60779144987463996,"longitude":174.80407817305499,"yAccel":3.0447645112872102,"latitude":-41.328596784771698,"date":1445310682.26281,"zAccel":12.331776320934299,"pitch":1.57173862312178}
{"yaw":-1.3069421000367301,"roll":0.0047853734398231604,"speed":1.1160000085830699,"altitude":-6.3159484863281197,"xAccel":-15.678995847702,"longitude":174.80407817305499,"yAccel":-11.2101934850216,"latitude":-41.328596784771698,"date":1445310682.4999299,"zAccel":6.4541578292846697,"pitch":1.6160056749263001}
{"yaw":-1.2981709667290799,"roll":0.0018799486135300399,"speed":1.1160000085830699,"altitude":-6.3159484863281197,"xAccel":-1.1196834966540301,"longitude":174.80407817305499,"yAccel":5.2922058850526801,"latitude":-41.328596784771698,"date":1445310682.67975,"zAccel":4.3192941695451701,"pitch":1.5750183403418401}
{"yaw":-1.29907298382542,"roll":-0.0057817342020223504,"speed":1.1160000085830699,"altitude":-6.3159484863281197,"xAccel":-0.17076053190976401,"longitude":174.80407817305499,"yAccel":-6.5182164311408997,"latitude":-41.328596784771698,"date":1445310682.8614399,"zAccel":4.67816181480885,"pitch":1.55036121680365}
{"yaw":-1.33528813980566,"roll":-0.010126317477366,"speed":1.1160000085830699,"altitude":-6.3159484863281197,"xAccel":-0.63114473596215204,"longitude":174.80407817305499,"yAccel":0.954212807118893,"latitude":-41.328596784771698,"date":1445310683.0990601,"zAccel":-7.5214609503745997,"pitch":1.51121419684044}
{"yaw":-1.3389527053471999,"roll":-0.016595632672853401,"speed":1.1160000085830699,"altitude":-7.0649108886718803,"xAccel":-1.93567108362913,"longitude":174.80407272481801,"yAccel":2.6560148224234599,"latitude":-41.328600766175697,"date":1445310683.25144,"zAccel":2.2603571414947501,"pitch":1.50918496730602}
{"yaw":-1.2877806922361501,"roll":-0.0159828052916435,"speed":1.1160000085830699,"altitude":-7.0649108886718803,"xAccel":3.07860635221004,"longitude":174.80407272481801,"yAccel":-1.21435411274433,"latitude":-41.328600766175697,"date":1445310683.4076099,"zAccel":-1.4553328044712499,"pitch":1.49993076022007}
{"yaw":-1.2807921662486901,"roll":-0.017254325109686199,"speed":1.1160000085830699,"altitude":-7.0649108886718803,"xAccel":0.74199927039444402,"longitude":174.80407272481801,"yAccel":5.37649914622307,"latitude":-41.328600766175697,"date":1445310683.5641201,"zAccel":-1.80457774549723,"pitch":1.49096261963069}
{"yaw":-1.2690620395627701,"roll":0.0068288350995714198,"speed":1.1160000085830699,"altitude":-7.0649108886718803,"xAccel":-4.1877273470163301,"longitude":174.80407272481801,"yAccel":10.8203291893005,"latitude":-41.328600766175697,"date":1445310683.74669,"zAccel":3.0298257246613498,"pitch":1.51020527440789}
{"yaw":-1.2366519066888999,"roll":0.022695926520494802,"speed":1.1160000085830699,"altitude":-7.0649108886718803,"xAccel":-13.401378691196401,"longitude":174.80407272481801,"yAccel":-22.443464398384101,"latitude":-41.328600766175697,"date":1445310683.8501501,"zAccel":5.44781498610973,"pitch":1.4917336809086601}
{"yaw":-1.1697370136223799,"roll":0.055048735489747799,"speed":1.1160000085830699,"altitude":-7.0649108886718803,"xAccel":-0.796734448522329,"longitude":174.80407272481801,"yAccel":0.81021003425121296,"latitude":-41.328600766175697,"date":1445310684.1108,"zAccel":-2.3766513913869902,"pitch":1.38628288228854}
{"yaw":-1.1362064789530799,"roll":0.0228312950394189,"speed":1.1160000085830699,"altitude":-7.0649108886718803,"xAccel":6.4501062035560599,"longitude":174.80407272481801,"yAccel":-2.83910036087036,"latitude":-41.328600766175697,"date":1445310684.3447399,"zAccel":1.6689695417881001,"pitch":1.3900299139150301}
{"yaw":-1.07932530956437,"roll":0.038643717783146701,"speed":1.1880000472068799,"altitude":-7.8071594238281197,"xAccel":-16.3315966725349,"longitude":174.80407423356101,"yAccel":-5.2578520029783196,"latitude":-41.328602023461201,"date":1445310684.6022401,"zAccel":48.104798793792703,"pitch":1.50781036565015}
{"yaw":-1.0369397876414499,"roll":0.110329199032989,"speed":1.1880000472068799,"altitude":-7.8071594238281197,"xAccel":4.3333042412996301,"longitude":174.80407423356101,"yAccel":-9.9438078701496107,"latitude":-41.328602023461201,"date":1445310684.75862,"zAccel":0.205551087856293,"pitch":1.5470859615567001}
{"yaw":-0.99042698427813203,"roll":0.23121681009018899,"speed":1.1880000472068799,"altitude":-7.8071594238281197,"xAccel":-8.1216908991336805,"longitude":174.80407423356101,"yAccel":-1.7655987292528199,"latitude":-41.328602023461201,"date":1445310684.9707601,"zAccel":-5.0447445362806302,"pitch":1.5444871029510701}
{"yaw":-0.92183905659669196,"roll":0.23533136603051899,"speed":1.1880000472068799,"altitude":-7.2892761230468803,"xAccel":-2.3655448108911501,"longitude":174.80407423356101,"yAccel":-0.58316867798566796,"latitude":-41.328605418132,"date":1445310685.19997,"zAccel":-0.133832881692797,"pitch":1.5296938473399899}
{"yaw":-0.90079718653833496,"roll":0.21102031427661599,"speed":1.1880000472068799,"altitude":-7.2892761230468803,"xAccel":10.514860600233099,"longitude":174.80407423356101,"yAccel":5.374825745821,"latitude":-41.328605418132,"date":1445310685.35637,"zAccel":-5.1346790045499802,"pitch":1.53256952581234}
{"yaw":-0.86423791688240603,"roll":0.107197934914937,"speed":1.1880000472068799,"altitude":-7.2892761230468803,"xAccel":10.0324653089046,"longitude":174.80407423356101,"yAccel":7.1067437529563904,"latitude":-41.328605418132,"date":1445310685.56476,"zAccel":4.9830116331577301,"pitch":1.4921648575438899}
{"yaw":-0.83021161496957097,"roll":-0.020384804405306,"speed":1.1880000472068799,"altitude":-7.2892761230468803,"xAccel":-5.6485686451196697,"longitude":174.80407423356101,"yAccel":4.8427596688270604,"latitude":-41.328605418132,"date":1445310685.8003299,"zAccel":9.2519342899322492,"pitch":1.41110947149988}
