{"date":0,"latitude":0,"longitude":0,"altitude":0,"speed":0,"pitch":0,"roll":0,"yaw":0,"xAccel":0,"yAccel":0,"zAccel":0}
{"date":1446263040,"latitude":-41.329185485839844,"longitude":174.80540466308594,"altitude":-6.604736328125,"speed":-3.5999999046325684,"pitch":2.7617378234863281,"roll":-0.052874863147735596,"yaw":0.012385009787976742,"xAccel":-18.349597930908203,"yAccel":24.809026718139648,"zAccel":13.436026573181152}
{"date":1446263040,"latitude":-41.329185485839844,"longitude":174.80540466308594,"altitude":-6.604736328125,"speed":-3.5999999046325684,"pitch":2.8028805255889893,"roll":-0.099786385893821716,"yaw":0.026052596047520638,"xAccel":-7.7434582710266113,"yAccel":-0.66910171508789062,"zAccel":-0.7171977162361145}
{"date":1446263040,"latitude":-41.329185485839844,"longitude":174.80540466308594,"altitude":-6.604736328125,"speed":-3.5999999046325684,"pitch":2.7303721904754639,"roll":-0.10318931937217712,"yaw":-0.0029944498091936111,"xAccel":-5.347625732421875,"yAccel":2.678295373916626,"zAccel":5.3222050666809082}
{"date":1446263040,"latitude":-41.329185485839844,"longitude":174.80540466308594,"altitude":-6.604736328125,"speed":-3.5999999046325684,"pitch":2.7127025127410889,"roll":-0.12265203893184662,"yaw":-0.0009132854756899178,"xAccel":-4.1946191787719727,"yAccel":11.288715362548828,"zAccel":-20.996814727783203}
{"date":1446263040,"latitude":-41.329185485839844,"longitude":174.80540466308594,"altitude":-6.604736328125,"speed":-3.5999999046325684,"pitch":2.7383697032928467,"roll":-0.030912553891539574,"yaw":-0.0054429643787443638,"xAccel":-12.314701080322266,"yAccel":0.80268484354019165,"zAccel":-0.71519732475280762}
{"date":1446263040,"latitude":-41.329185485839844,"longitude":174.80540466308594,"altitude":-6.604736328125,"speed":-3.5999999046325684,"pitch":2.7545251846313477,"roll":0.030311413109302521,"yaw":-0.011364481411874294,"xAccel":-29.162315368652344,"yAccel":24.941715240478516,"zAccel":16.926223754882812}
{"date":1446263040,"latitude":-41.329158782958984,"longitude":174.80526733398438,"altitude":-1.84893798828125,"speed":1.1519999504089355,"pitch":2.8202047348022461,"roll":-0.053562488406896591,"yaw":-0.032159972935914993,"xAccel":-26.636648178100586,"yAccel":-11.78577709197998,"zAccel":-27.885066986083984}
{"date":1446263040,"latitude":-41.329158782958984,"longitude":174.80526733398438,"altitude":-1.84893798828125,"speed":1.1519999504089355,"pitch":2.8173871040344238,"roll":-0.077449217438697815,"yaw":-0.1232035756111145,"xAccel":-36.615962982177734,"yAccel":4.8390049934387207,"zAccel":-14.475064277648926}
{"date":1446263040,"latitude":-41.329158782958984,"longitude":174.80526733398438,"altitude":-1.84893798828125,"speed":1.1519999504089355,"pitch":2.8284084796905518,"roll":-0.12868179380893707,"yaw":-0.20951156318187714,"xAccel":-14.152580261230469,"yAccel":7.1807937622070312,"zAccel":-1.886505126953125}
{"date":1446263040,"latitude":-41.329158782958984,"longitude":174.80526733398438,"altitude":-1.84893798828125,"speed":1.1519999504089355,"pitch":2.8067071437835693,"roll":-0.12570327520370483,"yaw":-0.32224848866462708,"xAccel":-8.8263120651245117,"yAccel":24.151889801025391,"zAccel":6.7946920394897461}
{"date":1446263040,"latitude":-41.329158782958984,"longitude":174.80526733398438,"altitude":-1.84893798828125,"speed":1.1519999504089355,"pitch":2.8260600566864014,"roll":-0.17397984862327576,"yaw":-0.39258685708045959,"xAccel":-8.0452108383178711,"yAccel":-5.933690071105957,"zAccel":9.764185905456543}
{"date":1446263040,"latitude":-41.329158782958984,"longitude":174.80526733398438,"altitude":-1.84893798828125,"speed":1.1519999504089355,"pitch":2.8086342811584473,"roll":-0.16120752692222595,"yaw":-0.42717665433883667,"xAccel":-5.9558043479919434,"yAccel":-13.548161506652832,"zAccel":10.607416152954102}
{"date":1446263040,"latitude":-41.329158782958984,"longitude":174.80526733398438,"altitude":-1.84893798828125,"speed":1.1519999504089355,"pitch":2.7881972789764404,"roll":-0.15466482937335968,"yaw":-0.43937119841575623,"xAccel":-1.9985215663909912,"yAccel":-8.0790576934814453,"zAccel":-9.3351306915283203}
{"date":1446263040,"latitude":-41.329158782958984,"longitude":174.80526733398438,"altitude":-1.84893798828125,"speed":1.1519999504089355,"pitch":2.7515835762023926,"roll":-0.147348552942276,"yaw":-0.41778984665870667,"xAccel":-12.30274772644043,"yAccel":-7.2439966201782227,"zAccel":13.587623596191406}
{"date":1446263040,"latitude":-41.329158782958984,"longitude":174.80526733398438,"altitude":-1.84893798828125,"speed":1.1519999504089355,"pitch":2.7704832553863525,"roll":-0.15838995575904846,"yaw":-0.37796637415885925,"xAccel":-10.003503799438477,"yAccel":5.9693946838378906,"zAccel":-12.460061073303223}
{"date":1446263040,"latitude":-41.329158782958984,"longitude":174.80526733398438,"altitude":-1.84893798828125,"speed":1.1519999504089355,"pitch":2.7710700035095215,"roll":-0.21586354076862335,"yaw":-0.31185704469680786,"xAccel":6.811185359954834,"yAccel":4.9499611854553223,"zAccel":-1.7809212207794189}
{"date":1446263040,"latitude":-41.329158782958984,"longitude":174.80526733398438,"altitude":-1.84893798828125,"speed":1.1519999504089355,"pitch":2.7703554630279541,"roll":-0.28010359406471252,"yaw":-0.23574016988277435,"xAccel":5.4828348159790039,"yAccel":8.2593460083007812,"zAccel":-27.251466751098633}
{"date":1446263040,"latitude":-41.329208374023438,"longitude":174.80535888671875,"altitude":-2.008544921875,"speed":0,"pitch":2.7186038494110107,"roll":-0.35756441950798035,"yaw":-0.16455064713954926,"xAccel":-5.0952000617980957,"yAccel":2.9773485660552979,"zAccel":-23.99847412109375}
{"date":1446263040,"latitude":-41.329208374023438,"longitude":174.80535888671875,"altitude":-2.008544921875,"speed":0,"pitch":2.6110341548919678,"roll":-0.43385389447212219,"yaw":-0.086354881525039673,"xAccel":2.0409877300262451,"yAccel":-2.0220720767974854,"zAccel":21.590230941772461}
{"date":1446263040,"latitude":-41.329208374023438,"longitude":174.80535888671875,"altitude":-2.008544921875,"speed":0,"pitch":2.5303792953491211,"roll":-0.41983574628829956,"yaw":-0.033020246773958206,"xAccel":11.153929710388184,"yAccel":4.5478916168212891,"zAccel":30.125219345092773}
{"date":1446263040,"latitude":-41.329208374023438,"longitude":174.80535888671875,"altitude":-2.008544921875,"speed":0,"pitch":2.5215013027191162,"roll":-0.40416568517684937,"yaw":0.023072415962815285,"xAccel":13.464125633239746,"yAccel":13.73936653137207,"zAccel":-0.32392671704292297}
{"date":1446263040,"latitude":-41.329208374023438,"longitude":174.80535888671875,"altitude":-2.008544921875,"speed":0,"pitch":2.5204992294311523,"roll":-0.37933260202407837,"yaw":0.1104573979973793,"xAccel":-21.228057861328125,"yAccel":14.54151725769043,"zAccel":25.97796630859375}
{"date":1446263040,"latitude":-41.329208374023438,"longitude":174.80535888671875,"altitude":-2.008544921875,"speed":0,"pitch":2.6035773754119873,"roll":-0.35999724268913269,"yaw":0.12227670103311539,"xAccel":-12.673148155212402,"yAccel":1.0758401155471802,"zAccel":-21.27374267578125}
{"date":1446263040,"latitude":-41.329208374023438,"longitude":174.80535888671875,"altitude":-2.008544921875,"speed":0,"pitch":2.7143402099609375,"roll":-0.28351181745529175,"yaw":-0.013299615122377872,"xAccel":-7.1873760223388672,"yAccel":-8.1433734893798828,"zAccel":-28.665557861328125}
{"date":1446263040,"latitude":-41.329208374023438,"longitude":174.80535888671875,"altitude":-2.008544921875,"speed":0,"pitch":2.6477954387664795,"roll":-0.12870994210243225,"yaw":-0.4615274965763092,"xAccel":-7.116492748260498,"yAccel":0.73601597547531128,"zAccel":41.630084991455078}
{"date":1446263040,"latitude":-41.329208374023438,"longitude":174.80535888671875,"altitude":-2.008544921875,"speed":0,"pitch":2.2707352638244629,"roll":-0.39481931924819946,"yaw":-0.32153525948524475,"xAccel":7.5426325798034668,"yAccel":1.3454973697662354,"zAccel":-24.37054443359375}
{"date":1446263040,"latitude":-41.329208374023438,"longitude":174.80535888671875,"altitude":-2.008544921875,"speed":0,"pitch":2.5115666389465332,"roll":-0.36093100905418396,"yaw":-0.62647527456283569,"xAccel":-2.9033467769622803,"yAccel":-2.1838998794555664,"zAccel":-18.118303298950195}
{"date":1446263040,"latitude":-41.329208374023438,"longitude":174.80535888671875,"altitude":-2.008544921875,"speed":0,"pitch":2.6121609210968018,"roll":-0.32775646448135376,"yaw":-0.59678435325622559,"xAccel":-17.194110870361328,"yAccel":-18.54315185546875,"zAccel":13.041202545166016}
{"date":1446263040,"latitude":-41.329208374023438,"longitude":174.80535888671875,"altitude":-2.008544921875,"speed":0,"pitch":2.4638106822967529,"roll":-0.37107548117637634,"yaw":0.072113469243049622,"xAccel":-32.646984100341797,"yAccel":12.677630424499512,"zAccel":35.834793090820312}
{"date":1446263040,"latitude":-41.329208374023438,"longitude":174.80535888671875,"altitude":-2.008544921875,"speed":0,"pitch":2.4349837303161621,"roll":-0.63193565607070923,"yaw":-0.12297652661800385,"xAccel":-3.4585886001586914,"yAccel":15.322603225708008,"zAccel":-9.4224967956542969}
{"date":1446263040,"latitude":-41.329193115234375,"longitude":174.80534362792969,"altitude":-2.7808837890625,"speed":0,"pitch":2.3910870552062988,"roll":-0.67769569158554077,"yaw":-0.19276081025600433,"xAccel":1.7806330919265747,"yAccel":16.093673706054688,"zAccel":7.1364126205444336}
{"date":1446263040,"latitude":-41.329193115234375,"longitude":174.80534362792969,"altitude":-2.7808837890625,"speed":0,"pitch":1.7392163276672363,"roll":-0.30736154317855835,"yaw":0.081143513321876526,"xAccel":-33.585483551025391,"yAccel":2.7219278812408447,"zAccel":-43.716991424560547}
{"date":1446263040,"latitude":-41.329193115234375,"longitude":174.80534362792969,"altitude":-2.37615966796875,"speed":0,"pitch":1.830066442489624,"roll":-0.43976140022277832,"yaw":0.3789355456829071,"xAccel":-6.1954045295715332,"yAccel":-81.288925170898438,"zAccel":-77.4716796875}
{"date":1446263040,"latitude":-41.329193115234375,"longitude":174.80534362792969,"altitude":-2.9200439453125,"speed":0,"pitch":2.4531097412109375,"roll":0.28582525253295898,"yaw":0.43983244895935059,"xAccel":15.89329719543457,"yAccel":-5.4183464050292969,"zAccel":-12.629054069519043}
{"date":1446263040,"latitude":-41.329193115234375,"longitude":174.80534362792969,"altitude":-2.9200439453125,"speed":0,"pitch":2.3793182373046875,"roll":0.17210978269577026,"yaw":0.40016621351242065,"xAccel":5.413487434387207,"yAccel":4.2746572494506836,"zAccel":-2.8415939807891846}
{"date":1446263040,"latitude":-41.329193115234375,"longitude":174.80534362792969,"altitude":-4.0789794921875,"speed":0,"pitch":2.5090012550354004,"roll":0.25313684344291687,"yaw":0.32645642757415771,"xAccel":-1.5869584083557129,"yAccel":9.8624715805053711,"zAccel":-7.8273496627807617}
{"date":1446263040,"latitude":-41.329193115234375,"longitude":174.80534362792969,"altitude":-4.0789794921875,"speed":0,"pitch":2.4550237655639648,"roll":0.19056370854377747,"yaw":0.19985756278038025,"xAccel":16.834003448486328,"yAccel":15.201434135437012,"zAccel":-0.23245736956596375}
{"date":1446263040,"latitude":-41.329193115234375,"longitude":174.80534362792969,"altitude":-4.0789794921875,"speed":0,"pitch":2.454442024230957,"roll":0.18978138267993927,"yaw":0.26538720726966858,"xAccel":-1.8127646446228027,"yAccel":-11.41433048248291,"zAccel":1.4151194095611572}
{"date":1446263040,"latitude":-41.329193115234375,"longitude":174.80534362792969,"altitude":-4.0789794921875,"speed":0,"pitch":2.1501693725585938,"roll":-0.21329502761363983,"yaw":0.79280573129653931,"xAccel":-17.831043243408203,"yAccel":10.130552291870117,"zAccel":-1.2484557628631592}
{"date":1446263040,"latitude":-41.329193115234375,"longitude":174.80534362792969,"altitude":-4.0789794921875,"speed":0,"pitch":1.0406174659729004,"roll":-0.48227769136428833,"yaw":1.9798264503479004,"xAccel":-54.810310363769531,"yAccel":-13.26109790802002,"zAccel":7.3932809829711914}
{"date":1446263040,"latitude":-41.329193115234375,"longitude":174.80534362792969,"altitude":-3.85638427734375,"speed":0,"pitch":0.58130353689193726,"roll":-0.02071891725063324,"yaw":2.8708829879760742,"xAccel":-4.2232327461242676,"yAccel":-0.056458696722984314,"zAccel":-6.8020596504211426}
{"date":1446263040,"latitude":-41.329193115234375,"longitude":174.80534362792969,"altitude":-3.85638427734375,"speed":0,"pitch":0.16693924367427826,"roll":0.49502465128898621,"yaw":-3.1300168037414551,"xAccel":-3.2103028297424316,"yAccel":11.399142265319824,"zAccel":-32.312236785888672}
{"date":1446263040,"latitude":-41.329193115234375,"longitude":174.80534362792969,"altitude":-3.85638427734375,"speed":0,"pitch":-0.13986578583717346,"roll":-0.10521332174539566,"yaw":-3.1077990531921387,"xAccel":21.190572738647461,"yAccel":7.9729228019714355,"zAccel":-53.40753173828125}
{"date":1446263040,"latitude":-41.329193115234375,"longitude":174.80534362792969,"altitude":-3.85638427734375,"speed":0,"pitch":-0.57105803489685059,"roll":-0.11305875331163406,"yaw":-2.3314940929412842,"xAccel":11.510248184204102,"yAccel":-13.460579872131348,"zAccel":-71.13397216796875}
{"date":1446263040,"latitude":-41.329193115234375,"longitude":174.80534362792969,"altitude":-3.85638427734375,"speed":0,"pitch":-0.85475301742553711,"roll":-0.19192157685756683,"yaw":-1.3469140529632568,"xAccel":-0.3169252872467041,"yAccel":-6.2914690971374512,"zAccel":-6.9081330299377441}
{"date":1446263040,"latitude":-41.329181671142578,"longitude":174.80535888671875,"altitude":-4.1129150390625,"speed":1.871999979019165,"pitch":-1.2747261524200439,"roll":0.84120649099349976,"yaw":-1.5762444734573364,"xAccel":34.632369995117188,"yAccel":47.649738311767578,"zAccel":24.764429092407227}
{"date":1446263040,"latitude":-41.329181671142578,"longitude":174.80535888671875,"altitude":-4.1129150390625,"speed":1.871999979019165,"pitch":-2.1423633098602295,"roll":0.90380203723907471,"yaw":-2.8020732402801514,"xAccel":3.2083566188812256,"yAccel":7.2962579727172852,"zAccel":8.3166646957397461}
{"date":1446263040,"latitude":-41.329181671142578,"longitude":174.80535888671875,"altitude":-4.1129150390625,"speed":1.871999979019165,"pitch":-1.8849079608917236,"roll":0.88832777738571167,"yaw":-2.3098752498626709,"xAccel":10.919382095336914,"yAccel":-1.8017795085906982,"zAccel":9.2378396987915039}
{"date":1446263040,"latitude":-41.329181671142578,"longitude":174.80535888671875,"altitude":-4.1129150390625,"speed":1.871999979019165,"pitch":-1.6632047891616821,"roll":0.90525877475738525,"yaw":-0.71727991104125977,"xAccel":-16.792858123779297,"yAccel":-6.0251531600952148,"zAccel":5.261538028717041}
{"date":1446263168,"latitude":-41.329181671142578,"longitude":174.80535888671875,"altitude":-4.1129150390625,"speed":1.871999979019165,"pitch":-1.9955266714096069,"roll":1.1315765380859375,"yaw":0.010135629214346409,"xAccel":-37.963005065917969,"yAccel":49.162269592285156,"zAccel":-7.6404561996459961}
{"date":1446263168,"latitude":-41.329177856445312,"longitude":174.80535888671875,"altitude":-3.8790283203125,"speed":0.75599998235702515,"pitch":-1.7792028188705444,"roll":1.1148577928543091,"yaw":0.29429376125335693,"xAccel":28.594022750854492,"yAccel":-4.3509669303894043,"zAccel":-2.3020832538604736}
{"date":1446263168,"latitude":-41.329177856445312,"longitude":174.80535888671875,"altitude":-3.8790283203125,"speed":0.75599998235702515,"pitch":-1.673619270324707,"roll":0.47866055369377136,"yaw":0.7424166202545166,"xAccel":-5.8375978469848633,"yAccel":-1.3204149007797241,"zAccel":-3.6853947639465332}
{"date":1446263168,"latitude":-41.329177856445312,"longitude":174.80535888671875,"altitude":-3.8790283203125,"speed":0.75599998235702515,"pitch":-1.7181824445724487,"roll":0.36007174849510193,"yaw":1.2825721502304077,"xAccel":-9.8998346328735352,"yAccel":75.50457763671875,"zAccel":75.750709533691406}
{"date":1446263168,"latitude":-41.329177856445312,"longitude":174.80535888671875,"altitude":-3.8790283203125,"speed":0.75599998235702515,"pitch":-1.9672415256500244,"roll":0.23824824392795563,"yaw":1.6744304895401001,"xAccel":-11.508875846862793,"yAccel":-22.299758911132812,"zAccel":30.302974700927734}
{"date":1446263168,"latitude":-41.329177856445312,"longitude":174.80535888671875,"altitude":-3.8790283203125,"speed":0.75599998235702515,"pitch":-1.9237970113754272,"roll":0.33799365162849426,"yaw":1.9957687854766846,"xAccel":-14.997246742248535,"yAccel":-15.821455001831055,"zAccel":32.215724945068359}
{"date":1446263168,"latitude":-41.329177856445312,"longitude":174.80535888671875,"altitude":-3.46856689453125,"speed":1.403999924659729,"pitch":-1.5726372003555298,"roll":0.41150641441345215,"yaw":2.7814123630523682,"xAccel":-15.327797889709473,"yAccel":51.011798858642578,"zAccel":20.548362731933594}
{"date":1446263168,"latitude":-41.329177856445312,"longitude":174.80535888671875,"altitude":-3.46856689453125,"speed":1.403999924659729,"pitch":-1.6848227977752686,"roll":-0.019292475655674934,"yaw":2.2888050079345703,"xAccel":-24.562490463256836,"yAccel":-13.052816390991211,"zAccel":-6.1214199066162109}
{"date":1446263168,"latitude":-41.329177856445312,"longitude":174.80535888671875,"altitude":-3.46856689453125,"speed":1.403999924659729,"pitch":-1.4533535242080688,"roll":-0.40456119179725647,"yaw":0.2847786545753479,"xAccel":-0.87277162075042725,"yAccel":12.523468971252441,"zAccel":-32.727287292480469}
{"date":1446263168,"latitude":-41.329177856445312,"longitude":174.80535888671875,"altitude":-3.46856689453125,"speed":1.403999924659729,"pitch":-1.3784916400909424,"roll":-0.44041931629180908,"yaw":-0.47036358714103699,"xAccel":-18.136945724487305,"yAccel":-4.0013289451599121,"zAccel":-21.371593475341797}
{"date":1446263168,"latitude":-41.329177856445312,"longitude":174.80535888671875,"altitude":-3.46856689453125,"speed":1.403999924659729,"pitch":-1.5794817209243774,"roll":-0.87205964326858521,"yaw":-0.35611426830291748,"xAccel":8.8745193481445312,"yAccel":38.805385589599609,"zAccel":-33.820896148681641}
{"date":1446263168,"latitude":-41.329177856445312,"longitude":174.80535888671875,"altitude":-3.61236572265625,"speed":0,"pitch":-2.316493034362793,"roll":-0.7969326376914978,"yaw":1.2594287395477295,"xAccel":-5.3319931030273438,"yAccel":39.085613250732422,"zAccel":32.627620697021484}
{"date":1446263168,"latitude":-41.329177856445312,"longitude":174.80535888671875,"altitude":-3.61236572265625,"speed":0,"pitch":-1.875555157661438,"roll":-0.83760982751846313,"yaw":0.84369009733200073,"xAccel":48.23419189453125,"yAccel":3.7104926109313965,"zAccel":4.4137248992919922}
{"date":1446263168,"latitude":-41.329177856445312,"longitude":174.80535888671875,"altitude":-3.61236572265625,"speed":0,"pitch":-0.81415963172912598,"roll":-0.89621275663375854,"yaw":-0.60049152374267578,"xAccel":91.066802978515625,"yAccel":8.7011222839355469,"zAccel":-54.8385009765625}
{"date":1446263168,"latitude":-41.329177856445312,"longitude":174.80535888671875,"altitude":-3.61236572265625,"speed":0,"pitch":0.18287293612957001,"roll":-1.1582356691360474,"yaw":-1.947627067565918,"xAccel":40.645839691162109,"yAccel":92.209823608398438,"zAccel":-41.511409759521484}
{"date":1446263168,"latitude":-41.329181671142578,"longitude":174.80535888671875,"altitude":-3.34063720703125,"speed":1.0440000295639038,"pitch":0.19963489472866058,"roll":-1.0369462966918945,"yaw":2.7371838092803955,"xAccel":-5.4763083457946777,"yAccel":76.884933471679688,"zAccel":-13.814939498901367}
{"date":1446263168,"latitude":-41.329181671142578,"longitude":174.80535888671875,"altitude":-3.34063720703125,"speed":1.0440000295639038,"pitch":-0.92475038766860962,"roll":-1.2195887565612793,"yaw":-3.0898873805999756,"xAccel":-7.2014594078063965,"yAccel":-105.69258880615234,"zAccel":-102.78585815429688}
{"date":1446263168,"latitude":-41.329181671142578,"longitude":174.80535888671875,"altitude":-3.34063720703125,"speed":1.0440000295639038,"pitch":-0.3031654953956604,"roll":-0.86235964298248291,"yaw":2.5480794906616211,"xAccel":25.661123275756836,"yAccel":33.759899139404297,"zAccel":-124.82948303222656}
{"date":1446263168,"latitude":-41.329181671142578,"longitude":174.80535888671875,"altitude":-3.34063720703125,"speed":1.0440000295639038,"pitch":-1.7036768198013306,"roll":-0.2896023690700531,"yaw":2.3636133670806885,"xAccel":1.8383893966674805,"yAccel":8.3660364151000977,"zAccel":65.835990905761719}
{"date":1446263168,"latitude":-41.329185485839844,"longitude":174.80535888671875,"altitude":-2.86627197265625,"speed":1.0440000295639038,"pitch":-0.93115353584289551,"roll":-0.029442045837640762,"yaw":2.1982419490814209,"xAccel":-43.718315124511719,"yAccel":-24.329128265380859,"zAccel":30.850114822387695}
{"date":1446263168,"latitude":-41.329185485839844,"longitude":174.80535888671875,"altitude":-2.86627197265625,"speed":1.0440000295639038,"pitch":-1.1046059131622314,"roll":0.34324198961257935,"yaw":2.581634521484375,"xAccel":15.946348190307617,"yAccel":-32.302242279052734,"zAccel":30.332569122314453}
{"date":1446263168,"latitude":-41.329185485839844,"longitude":174.80535888671875,"altitude":-2.86627197265625,"speed":1.0440000295639038,"pitch":-1.7717877626419067,"roll":0.43197983503341675,"yaw":2.5103714466094971,"xAccel":-59.028732299804688,"yAccel":-79.976913452148438,"zAccel":22.912269592285156}
{"date":1446263168,"latitude":-41.329185485839844,"longitude":174.80535888671875,"altitude":-2.86627197265625,"speed":1.0440000295639038,"pitch":-1.6726408004760742,"roll":0.59073621034622192,"yaw":-2.8755984306335449,"xAccel":-85.47552490234375,"yAccel":-9.7345495223999023,"zAccel":-61.201805114746094}
{"date":1446263168,"latitude":-41.329185485839844,"longitude":174.80535888671875,"altitude":-2.86627197265625,"speed":1.0440000295639038,"pitch":-0.68832921981811523,"roll":0.97709745168685913,"yaw":-3.0817720890045166,"xAccel":124.49995422363281,"yAccel":70.452896118164062,"zAccel":-40.058948516845703}
{"date":1446263168,"latitude":-41.329185485839844,"longitude":174.80535888671875,"altitude":-3.716796875,"speed":0,"pitch":-1.0410809516906738,"roll":0.37476176023483276,"yaw":2.9682595729827881,"xAccel":20.688640594482422,"yAccel":114.71376800537109,"zAccel":39.660316467285156}
{"date":1446263168,"latitude":-41.329185485839844,"longitude":174.80535888671875,"altitude":-3.716796875,"speed":0,"pitch":-1.0755404233932495,"roll":-0.07258007675409317,"yaw":2.8825318813323975,"xAccel":-25.728506088256836,"yAccel":98.929061889648438,"zAccel":27.18592643737793}
{"date":1446263168,"latitude":-41.329185485839844,"longitude":174.80535888671875,"altitude":-3.716796875,"speed":0,"pitch":-0.6369248628616333,"roll":-0.28948986530303955,"yaw":2.6664626598358154,"xAccel":-25.143627166748047,"yAccel":57.970939636230469,"zAccel":2.3529682159423828}
{"date":1446263168,"latitude":-41.329185485839844,"longitude":174.80535888671875,"altitude":-3.716796875,"speed":0,"pitch":0.71049636602401733,"roll":0.11984293162822723,"yaw":2.7851371765136719,"xAccel":42.43963623046875,"yAccel":-30.916345596313477,"zAccel":-157.67283630371094}
{"date":1446263168,"latitude":-41.329174041748047,"longitude":174.80537414550781,"altitude":-3.1820068359375,"speed":0.97200006246566772,"pitch":1.2953332662582397,"roll":0.15328949689865112,"yaw":2.9654037952423096,"xAccel":37.464420318603516,"yAccel":30.152523040771484,"zAccel":-0.99988740682601929}
{"date":1446263168,"latitude":-41.329174041748047,"longitude":174.80537414550781,"altitude":-3.1820068359375,"speed":0.97200006246566772,"pitch":1.2006058692932129,"roll":0.14622598886489868,"yaw":2.9153790473937988,"xAccel":160.06614685058594,"yAccel":-161.53797912597656,"zAccel":-83.331947326660156}
{"date":1446263168,"latitude":-41.329174041748047,"longitude":174.80537414550781,"altitude":-3.1820068359375,"speed":0.97200006246566772,"pitch":1.1105084419250488,"roll":0.092472173273563385,"yaw":2.95353102684021,"xAccel":3.7759754657745361,"yAccel":119.30154418945312,"zAccel":55.610496520996094}
{"date":1446263168,"latitude":-41.329174041748047,"longitude":174.80537414550781,"altitude":-3.1820068359375,"speed":0.97200006246566772,"pitch":1.1003551483154297,"roll":0.22910866141319275,"yaw":3.0684406757354736,"xAccel":28.642049789428711,"yAccel":0.58173418045043945,"zAccel":4.9867486953735352}
{"date":1446263168,"latitude":-41.329174041748047,"longitude":174.80537414550781,"altitude":-3.1820068359375,"speed":0.97200006246566772,"pitch":1.5832697153091431,"roll":0.20113851130008698,"yaw":-3.0675501823425293,"xAccel":-14.35072135925293,"yAccel":45.089389801025391,"zAccel":-18.191595077514648}
{"date":1446263168,"latitude":-41.329170227050781,"longitude":174.80537414550781,"altitude":-3.0313720703125,"speed":1.0800000429153442,"pitch":1.602476954460144,"roll":0.1434965580701828,"yaw":-2.9686427116394043,"xAccel":-3.285294771194458,"yAccel":19.697380065917969,"zAccel":-12.615144729614258}
{"date":1446263168,"latitude":-41.329170227050781,"longitude":174.80537414550781,"altitude":-3.0313720703125,"speed":1.0800000429153442,"pitch":1.7767773866653442,"roll":0.16683652997016907,"yaw":-2.8068015575408936,"xAccel":33.577190399169922,"yAccel":-0.6746031641960144,"zAccel":-2.3806624412536621}
{"date":1446263168,"latitude":-41.329170227050781,"longitude":174.80537414550781,"altitude":-3.0313720703125,"speed":1.0800000429153442,"pitch":1.7775379419326782,"roll":0.16641291975975037,"yaw":-2.8899605274200439,"xAccel":22.912246704101562,"yAccel":-2.3615596294403076,"zAccel":9.4449739456176758}
{"date":1446263168,"latitude":-41.329170227050781,"longitude":174.80537414550781,"altitude":-3.0313720703125,"speed":1.0800000429153442,"pitch":1.4452661275863647,"roll":0.170716792345047,"yaw":-2.9277579784393311,"xAccel":8.0258636474609375,"yAccel":26.114107131958008,"zAccel":1.4497623443603516}
{"date":1446263168,"latitude":-41.329170227050781,"longitude":174.80537414550781,"altitude":-3.39508056640625,"speed":0,"pitch":1.5185956954956055,"roll":0.14102849364280701,"yaw":-3.0137448310852051,"xAccel":13.221491813659668,"yAccel":-7.7591366767883301,"zAccel":5.5289959907531738}
{"date":1446263168,"latitude":-41.329170227050781,"longitude":174.80537414550781,"altitude":-3.39508056640625,"speed":0,"pitch":1.5097739696502686,"roll":0.14249910414218903,"yaw":-3.0209329128265381,"xAccel":26.973339080810547,"yAccel":38.005058288574219,"zAccel":12.461594581604004}
{"date":1446263168,"latitude":-41.329170227050781,"longitude":174.80537414550781,"altitude":-3.39508056640625,"speed":0,"pitch":1.622483491897583,"roll":0.14487279951572418,"yaw":-2.9751565456390381,"xAccel":14.99970531463623,"yAccel":-7.5502662658691406,"zAccel":-9.8199548721313477}
{"date":1446263168,"latitude":-41.329170227050781,"longitude":174.80537414550781,"altitude":-3.39508056640625,"speed":0,"pitch":1.733587384223938,"roll":0.11027699708938599,"yaw":-2.9575033187866211,"xAccel":7.9886994361877441,"yAccel":-3.0903491973876953,"zAccel":1.0560508966445923}
{"date":1446263168,"latitude":-41.329170227050781,"longitude":174.80537414550781,"altitude":-3.39508056640625,"speed":0,"pitch":1.7924491167068481,"roll":0.053147934377193451,"yaw":-2.9694373607635498,"xAccel":4.6378536224365234,"yAccel":0.78798866271972656,"zAccel":-0.58099788427352905}
{"date":1446263168,"latitude":-41.329170227050781,"longitude":174.80537414550781,"altitude":-3.24285888671875,"speed":0,"pitch":1.6826471090316772,"roll":0.003433513455092907,"yaw":-2.9643557071685791,"xAccel":-6.225557804107666,"yAccel":-2.2093262672424316,"zAccel":-10.36234188079834}
{"date":1446263168,"latitude":-41.329170227050781,"longitude":174.80537414550781,"altitude":-3.24285888671875,"speed":0,"pitch":1.570810079574585,"roll":-0.015782415866851807,"yaw":-2.9068458080291748,"xAccel":3.2069802284240723,"yAccel":8.6926851272583008,"zAccel":-5.6123342514038086}
{"date":1446263168,"latitude":-41.329170227050781,"longitude":174.80537414550781,"altitude":-3.24285888671875,"speed":0,"pitch":1.4723083972930908,"roll":0.026699598878622055,"yaw":-2.8780145645141602,"xAccel":-6.227757453918457,"yAccel":1.1339819431304932,"zAccel":5.1013469696044922}
{"date":1446263168,"latitude":-41.329170227050781,"longitude":174.80537414550781,"altitude":-3.24285888671875,"speed":0,"pitch":1.3782156705856323,"roll":0.025347029790282249,"yaw":-2.8639211654663086,"xAccel":-5.0324020385742188,"yAccel":-1.9717227220535278,"zAccel":-2.9694671630859375}
{"date":1446263168,"latitude":-41.329170227050781,"longitude":174.80537414550781,"altitude":-3.21270751953125,"speed":0,"pitch":1.3300061225891113,"roll":0.038958009332418442,"yaw":-2.8712418079376221,"xAccel":-1.5312097072601318,"yAccel":6.6467037200927734,"zAccel":6.833620548248291}
{"date":1446263168,"latitude":-41.329170227050781,"longitude":174.80537414550781,"altitude":-3.21270751953125,"speed":0,"pitch":1.3208842277526855,"roll":0.14955288171768188,"yaw":-3.1235349178314209,"xAccel":-3.3987383842468262,"yAccel":-0.6297791600227356,"zAccel":5.2454113960266113}
{"date":1446263168,"latitude":-41.329170227050781,"longitude":174.80537414550781,"altitude":-3.21270751953125,"speed":0,"pitch":1.363639235496521,"roll":0.14545343816280365,"yaw":3.1164708137512207,"xAccel":6.982208251953125,"yAccel":3.0083737373352051,"zAccel":-8.4930696487426758}
{"date":1446263168,"latitude":-41.329170227050781,"longitude":174.80537414550781,"altitude":-3.6051025390625,"speed":0,"pitch":1.3849689960479736,"roll":0.16671237349510193,"yaw":3.1052682399749756,"xAccel":1.3689002990722656,"yAccel":-3.6701295375823975,"zAccel":0.051067262887954712}
{"date":1446263168,"latitude":-41.329170227050781,"longitude":174.80537414550781,"altitude":-3.6051025390625,"speed":0,"pitch":1.3834588527679443,"roll":0.086237676441669464,"yaw":3.0936112403869629,"xAccel":10.183212280273438,"yAccel":-12.531929969787598,"zAccel":14.22072696685791}
{"date":1446263168,"latitude":-41.329170227050781,"longitude":174.80537414550781,"altitude":-3.6051025390625,"speed":0,"pitch":1.3619132041931152,"roll":0.11817674338817596,"yaw":3.1224913597106934,"xAccel":6.5609993934631348,"yAccel":-5.6422562599182129,"zAccel":-3.7631924152374268}
{"date":1446263168,"latitude":-41.329170227050781,"longitude":174.80537414550781,"altitude":-3.6051025390625,"speed":0,"pitch":1.279465913772583,"roll":0.16674810647964478,"yaw":3.128056526184082,"xAccel":-6.8627433776855469,"yAccel":2.0870707035064697,"zAccel":-5.1736583709716797}
{"date":1446263168,"latitude":-41.329170227050781,"longitude":174.80537414550781,"altitude":-3.6051025390625,"speed":0,"pitch":1.291857123374939,"roll":0.1149408221244812,"yaw":3.1322526931762695,"xAccel":9.1677646636962891,"yAccel":4.1323628425598145,"zAccel":-0.35912910103797913}
{"date":1446263168,"latitude":-41.329170227050781,"longitude":174.80537414550781,"altitude":-3.6051025390625,"speed":0,"pitch":1.2960280179977417,"roll":0.10678353160619736,"yaw":-3.1246118545532227,"xAccel":3.2056787014007568,"yAccel":-6.3547792434692383,"zAccel":1.1395179033279419}
{"date":1446263168,"latitude":-41.329170227050781,"longitude":174.80537414550781,"altitude":-3.6051025390625,"speed":0,"pitch":1.3035258054733276,"roll":0.13791187107563019,"yaw":-3.0689363479614258,"xAccel":0.11836092174053192,"yAccel":7.4691905975341797,"zAccel":0.39105904102325439}
{"date":1446263168,"latitude":-41.329170227050781,"longitude":174.80537414550781,"altitude":-3.59649658203125,"speed":0,"pitch":1.2914245128631592,"roll":0.1502080112695694,"yaw":-3.0448498725891113,"xAccel":-2.6702017784118652,"yAccel":-1.9275403022766113,"zAccel":0.33082887530326843}
{"date":1446263168,"latitude":-41.329170227050781,"longitude":174.80537414550781,"altitude":-3.59649658203125,"speed":0,"pitch":1.2914245128631592,"roll":0.1502080112695694,"yaw":-3.0448498725891113,"xAccel":-2.6702017784118652,"yAccel":-1.9275403022766113,"zAccel":0.33082887530326843}
{"date":1446263168,"latitude":-41.329170227050781,"longitude":174.80537414550781,"altitude":-3.59649658203125,"speed":0,"pitch":1.2791808843612671,"roll":0.180924192070961,"yaw":-3.011122465133667,"xAccel":2.7732341289520264,"yAccel":2.1478042602539062,"zAccel":1.0298819541931152}
{"date":1446263168,"latitude":-41.329170227050781,"longitude":174.80537414550781,"altitude":-3.59649658203125,"speed":0,"pitch":1.2791808843612671,"roll":0.180924192070961,"yaw":-3.011122465133667,"xAccel":2.7732341289520264,"yAccel":2.1478042602539062,"zAccel":1.0298819541931152}
{"date":1446263168,"latitude":-41.329170227050781,"longitude":174.80537414550781,"altitude":-3.59649658203125,"speed":0,"pitch":1.2718803882598877,"roll":0.19872042536735535,"yaw":-2.9864764213562012,"xAccel":-13.545538902282715,"yAccel":-7.6990761756896973,"zAccel":5.0895400047302246}
{"date":1446263168,"latitude":-41.329170227050781,"longitude":174.80537414550781,"altitude":-3.59649658203125,"speed":0,"pitch":1.2574098110198975,"roll":0.20131069421768188,"yaw":-3.0113940238952637,"xAccel":3.1878161430358887,"yAccel":-0.2791537344455719,"zAccel":7.9459190368652344}
{"date":1446263168,"latitude":-41.329170227050781,"longitude":174.80537414550781,"altitude":-3.59649658203125,"speed":0,"pitch":1.2574098110198975,"roll":0.20131069421768188,"yaw":-3.0113940238952637,"xAccel":3.1878161430358887,"yAccel":-0.2791537344455719,"zAccel":7.9459190368652344}
{"date":1446263168,"latitude":-41.329170227050781,"longitude":174.80537414550781,"altitude":-3.59649658203125,"speed":0,"pitch":1.2602040767669678,"roll":0.18363161385059357,"yaw":-3.0301175117492676,"xAccel":2.3955698013305664,"yAccel":0.0063282744958996773,"zAccel":-3.6766562461853027}
{"date":1446263168,"latitude":-41.329170227050781,"longitude":174.80537414550781,"altitude":-3.59649658203125,"speed":0,"pitch":1.2731524705886841,"roll":0.17707143723964691,"yaw":-3.0429933071136475,"xAccel":6.8634128570556641,"yAccel":2.2746460437774658,"zAccel":5.0016474723815918}
{"date":1446263168,"latitude":-41.329170227050781,"longitude":174.80537414550781,"altitude":-3.59649658203125,"speed":0,"pitch":1.2909755706787109,"roll":0.17328892648220062,"yaw":-3.0677950382232666,"xAccel":-0.33430540561676025,"yAccel":-1.7812820672988892,"zAccel":3.6821410655975342}
{"date":1446263168,"latitude":-41.329170227050781,"longitude":174.80537414550781,"altitude":-3.19927978515625,"speed":0,"pitch":1.2872414588928223,"roll":0.17472784221172333,"yaw":-3.0775678157806396,"xAccel":-11.816731452941895,"yAccel":-5.3040509223937988,"zAccel":-1.4707287549972534}
{"date":1446263168,"latitude":-41.329170227050781,"longitude":174.80537414550781,"altitude":-3.19927978515625,"speed":0,"pitch":1.2669162750244141,"roll":0.19312754273414612,"yaw":-3.1087801456451416,"xAccel":-16.968879699707031,"yAccel":1.5392194986343384,"zAccel":9.3392629623413086}
{"date":1446263168,"latitude":-41.329170227050781,"longitude":174.80537414550781,"altitude":-3.19927978515625,"speed":0,"pitch":1.3223898410797119,"roll":0.26403540372848511,"yaw":3.0890040397644043,"xAccel":-18.274738311767578,"yAccel":16.485509872436523,"zAccel":4.2842583656311035}
{"date":1446263168,"latitude":-41.329170227050781,"longitude":174.80537414550781,"altitude":-3.19927978515625,"speed":0,"pitch":1.3907712697982788,"roll":0.26321971416473389,"yaw":2.9667923450469971,"xAccel":-8.3727121353149414,"yAccel":-8.3875665664672852,"zAccel":-8.3653707504272461}
{"date":1446263168,"latitude":-41.329170227050781,"longitude":174.80537414550781,"altitude":-3.19927978515625,"speed":0,"pitch":1.4167219400405884,"roll":0.21528293192386627,"yaw":2.9591805934906006,"xAccel":-9.5687074661254883,"yAccel":-1.7261532545089722,"zAccel":1.7328652143478394}
{"date":1446263168,"latitude":-41.329170227050781,"longitude":174.80537414550781,"altitude":-3.2335205078125,"speed":0,"pitch":1.4467014074325562,"roll":0.11925793439149857,"yaw":2.9861352443695068,"xAccel":6.1587138175964355,"yAccel":-18.421745300292969,"zAccel":-5.9893922805786133}
{"date":1446263168,"latitude":-41.329170227050781,"longitude":174.80537414550781,"altitude":-3.2335205078125,"speed":0,"pitch":1.4467014074325562,"roll":0.11925793439149857,"yaw":2.9861352443695068,"xAccel":6.1587138175964355,"yAccel":-18.421745300292969,"zAccel":-5.9893922805786133}
{"date":1446263168,"latitude":-41.329170227050781,"longitude":174.80537414550781,"altitude":-3.2335205078125,"speed":0,"pitch":1.4616850614547729,"roll":0.11026054620742798,"yaw":3.0463628768920898,"xAccel":10.246891021728516,"yAccel":2.0792717933654785,"zAccel":2.1038811206817627}
{"date":1446263168,"latitude":-41.329170227050781,"longitude":174.80537414550781,"altitude":-3.2335205078125,"speed":0,"pitch":1.4745900630950928,"roll":0.12037308514118195,"yaw":3.1118714809417725,"xAccel":7.4153647422790527,"yAccel":-7.0710554122924805,"zAccel":-1.5193185806274414}
{"date":1446263168,"latitude":-41.329170227050781,"longitude":174.80537414550781,"altitude":-3.2335205078125,"speed":0,"pitch":1.4602471590042114,"roll":0.11222325265407562,"yaw":-2.9679465293884277,"xAccel":3.662468433380127,"yAccel":-2.4731240272521973,"zAccel":-4.525331974029541}
{"date":1446263168,"latitude":-41.329170227050781,"longitude":174.80537414550781,"altitude":-3.2335205078125,"speed":0,"pitch":1.4833099842071533,"roll":0.10736539959907532,"yaw":-2.7835280895233154,"xAccel":-16.887226104736328,"yAccel":-2.1599786281585693,"zAccel":0.79006338119506836}
{"date":1446263168,"latitude":-41.329170227050781,"longitude":174.80537414550781,"altitude":-3.2335205078125,"speed":0,"pitch":1.4837802648544312,"roll":0.05482899397611618,"yaw":-2.6725227832794189,"xAccel":6.8046150207519531,"yAccel":5.1405844688415527,"zAccel":3.8422665596008301}
{"date":1446263168,"latitude":-41.329170227050781,"longitude":174.80537414550781,"altitude":-3.2335205078125,"speed":0,"pitch":1.4643549919128418,"roll":0.021856456995010376,"yaw":-2.6388869285583496,"xAccel":-4.7725362777709961,"yAccel":-8.3472709655761719,"zAccel":-2.1025311946868896}
{"date":1446263168,"latitude":-41.329170227050781,"longitude":174.80537414550781,"altitude":-2.380859375,"speed":0,"pitch":1.4003341197967529,"roll":-0.035830095410346985,"yaw":-2.6275844573974609,"xAccel":9.6883258819580078,"yAccel":2.1022005081176758,"zAccel":-3.4275109767913818}
{"date":1446263168,"latitude":-41.329170227050781,"longitude":174.80537414550781,"altitude":-2.380859375,"speed":0,"pitch":1.3584619760513306,"roll":-0.024499963968992233,"yaw":-2.6164400577545166,"xAccel":5.0682539939880371,"yAccel":-4.084867000579834,"zAccel":9.5076427459716797}
{"date":1446263168,"latitude":-41.329170227050781,"longitude":174.80537414550781,"altitude":-2.380859375,"speed":0,"pitch":1.3266305923461914,"roll":0.0031835937406867743,"yaw":-2.6078000068664551,"xAccel":-30.899599075317383,"yAccel":-30.443059921264648,"zAccel":8.0397863388061523}
{"date":1446263168,"latitude":-41.329170227050781,"longitude":174.80537414550781,"altitude":-2.380859375,"speed":0,"pitch":1.3316717147827148,"roll":-0.0064758462831377983,"yaw":-2.6302516460418701,"xAccel":-7.4285855293273926,"yAccel":-4.1780362129211426,"zAccel":9.9868383407592773}
{"date":1446263168,"latitude":-41.329170227050781,"longitude":174.80537414550781,"altitude":-2.380859375,"speed":0,"pitch":1.3911330699920654,"roll":0.003445957088842988,"yaw":-2.6923630237579346,"xAccel":-7.7990202903747559,"yAccel":5.0258560180664062,"zAccel":8.6759967803955078}
{"date":1446263168,"latitude":-41.329170227050781,"longitude":174.80537414550781,"altitude":-2.380859375,"speed":0,"pitch":1.4148054122924805,"roll":0.013026378117501736,"yaw":-2.7533056735992432,"xAccel":1.4918099641799927,"yAccel":4.0920624732971191,"zAccel":-3.2421038150787354}
{"date":1446263168,"latitude":-41.329170227050781,"longitude":174.80537414550781,"altitude":-2.380859375,"speed":0,"pitch":1.4126334190368652,"roll":0.0050472202710807323,"yaw":-2.863032341003418,"xAccel":2.4044389724731445,"yAccel":-5.0336079597473145,"zAccel":-3.1006956100463867}
{"date":1446263168,"latitude":-41.329170227050781,"longitude":174.80537414550781,"altitude":-2.380859375,"speed":0,"pitch":1.411072850227356,"roll":-0.015125216916203499,"yaw":-2.9669876098632812,"xAccel":-9.0777721405029297,"yAccel":-0.098554112017154694,"zAccel":-14.550768852233887}
{"date":1446263168,"latitude":-41.329170227050781,"longitude":174.80537414550781,"altitude":-2.62982177734375,"speed":0,"pitch":1.3717435598373413,"roll":-0.033676855266094208,"yaw":-3.0929255485534668,"xAccel":4.8360762596130371,"yAccel":-9.1636333465576172,"zAccel":0.48095610737800598}
{"date":1446263168,"latitude":-41.329170227050781,"longitude":174.80537414550781,"altitude":-2.62982177734375,"speed":0,"pitch":1.3491085767745972,"roll":-0.037934623658657074,"yaw":-3.0982296466827393,"xAccel":4.0123181343078613,"yAccel":-0.12482990324497223,"zAccel":0.13969281315803528}
{"date":1446263168,"latitude":-41.329170227050781,"longitude":174.80537414550781,"altitude":-2.62982177734375,"speed":0,"pitch":1.3058743476867676,"roll":-0.010405589826405048,"yaw":-3.1059925556182861,"xAccel":-15.35481071472168,"yAccel":-21.644260406494141,"zAccel":-12.981597900390625}
{"date":1446263168,"latitude":-41.329170227050781,"longitude":174.80537414550781,"altitude":-2.62982177734375,"speed":0,"pitch":1.2834830284118652,"roll":-0.060989014804363251,"yaw":-3.1340546607971191,"xAccel":1.0795612335205078,"yAccel":3.1673264503479004,"zAccel":1.0576657056808472}
{"date":1446263168,"latitude":-41.329170227050781,"longitude":174.80537414550781,"altitude":-2.62982177734375,"speed":0,"pitch":1.2900433540344238,"roll":-0.12393134087324142,"yaw":3.05845046043396,"xAccel":1.603410005569458,"yAccel":0.34044679999351501,"zAccel":-0.44005006551742554}
{"date":1446263168,"latitude":-41.329166412353516,"longitude":174.80537414550781,"altitude":-2.79364013671875,"speed":2.7360000610351562,"pitch":1.3156204223632812,"roll":-0.18837936222553253,"yaw":2.9602620601654053,"xAccel":24.892057418823242,"yAccel":8.7875652313232422,"zAccel":-0.85855329036712646}
{"date":1446263168,"latitude":-41.329166412353516,"longitude":174.80537414550781,"altitude":-2.79364013671875,"speed":2.7360000610351562,"pitch":1.3557558059692383,"roll":-0.19015522301197052,"yaw":2.9691586494445801,"xAccel":13.471915245056152,"yAccel":-4.3510832786560059,"zAccel":-4.0046043395996094}
{"date":1446263168,"latitude":-41.329166412353516,"longitude":174.80537414550781,"altitude":-2.79364013671875,"speed":2.7360000610351562,"pitch":1.3862481117248535,"roll":-0.17125089466571808,"yaw":2.9791355133056641,"xAccel":11.188776969909668,"yAccel":10.84105110168457,"zAccel":-5.0569195747375488}
{"date":1446263168,"latitude":-41.329166412353516,"longitude":174.80537414550781,"altitude":-2.79364013671875,"speed":2.7360000610351562,"pitch":1.4321728944778442,"roll":-0.1258569210767746,"yaw":2.9581594467163086,"xAccel":-1.286928653717041,"yAccel":8.3876590728759766,"zAccel":-3.7187676429748535}
{"date":1446263168,"latitude":-41.329166412353516,"longitude":174.80537414550781,"altitude":-2.79364013671875,"speed":2.7360000610351562,"pitch":1.4789048433303833,"roll":-0.12092706561088562,"yaw":2.9604077339172363,"xAccel":-2.3266217708587646,"yAccel":-4.322929859161377,"zAccel":6.3815116882324219}
{"date":1446263168,"latitude":-41.329166412353516,"longitude":174.80537414550781,"altitude":-2.79364013671875,"speed":2.7360000610351562,"pitch":1.4847637414932251,"roll":-0.11509665846824646,"yaw":2.9362316131591797,"xAccel":1.1988344192504883,"yAccel":4.7479414939880371,"zAccel":-2.5268826484680176}
{"date":1446263168,"latitude":-41.329166412353516,"longitude":174.80537414550781,"altitude":-2.79364013671875,"speed":2.7360000610351562,"pitch":1.4962265491485596,"roll":-0.11439103633165359,"yaw":2.9370033740997314,"xAccel":6.4538693428039551,"yAccel":-0.13618317246437073,"zAccel":5.1062459945678711}
{"date":1446263168,"latitude":-41.329170227050781,"longitude":174.80537414550781,"altitude":-3.4739990234375,"speed":1.9440001249313354,"pitch":1.5219913721084595,"roll":-0.088548846542835236,"yaw":2.9928257465362549,"xAccel":-1.0888012647628784,"yAccel":3.9802670478820801,"zAccel":-3.6097440719604492}
{"date":1446263168,"latitude":-41.329170227050781,"longitude":174.80537414550781,"altitude":-3.4739990234375,"speed":1.9440001249313354,"pitch":1.5182144641876221,"roll":-0.051134273409843445,"yaw":3.0665829181671143,"xAccel":2.8432075977325439,"yAccel":-1.7564690113067627,"zAccel":1.0316274166107178}
{"date":1446263168,"latitude":-41.329170227050781,"longitude":174.80537414550781,"altitude":-3.4739990234375,"speed":1.9440001249313354,"pitch":1.4808988571166992,"roll":-0.025014780461788177,"yaw":-3.1015253067016602,"xAccel":9.1900672912597656,"yAccel":-3.4027988910675049,"zAccel":-1.4369901418685913}
{"date":1446263168,"latitude":-41.329170227050781,"longitude":174.80537414550781,"altitude":-3.4739990234375,"speed":1.9440001249313354,"pitch":1.490487813949585,"roll":0.021842313930392265,"yaw":-2.9606263637542725,"xAccel":-5.2225584983825684,"yAccel":4.3643121719360352,"zAccel":-4.9532938003540039}
{"date":1446263168,"latitude":-41.329170227050781,"longitude":174.80537414550781,"altitude":-3.4739990234375,"speed":1.9440001249313354,"pitch":1.5387814044952393,"roll":0.034652434289455414,"yaw":-2.8873119354248047,"xAccel":-1.8485602140426636,"yAccel":2.1531579494476318,"zAccel":-0.59740114212036133}
{"date":1446263168,"latitude":-41.329170227050781,"longitude":174.80537414550781,"altitude":-3.93572998046875,"speed":2.0160000324249268,"pitch":1.640587329864502,"roll":0.040965113788843155,"yaw":-2.7972977161407471,"xAccel":-4.0848712921142578,"yAccel":-0.13487082719802856,"zAccel":2.237363338470459}
{"date":1446263168,"latitude":-41.329170227050781,"longitude":174.80537414550781,"altitude":-3.93572998046875,"speed":2.0160000324249268,"pitch":1.6125823259353638,"roll":0.046507067978382111,"yaw":-2.7926521301269531,"xAccel":9.5944042205810547,"yAccel":3.9321799278259277,"zAccel":-9.3494672775268555}
{"date":1446263168,"latitude":-41.329170227050781,"longitude":174.80537414550781,"altitude":-3.93572998046875,"speed":2.0160000324249268,"pitch":1.5980854034423828,"roll":0.05293738842010498,"yaw":-2.7849719524383545,"xAccel":1.1607125997543335,"yAccel":-3.1664628982543945,"zAccel":-6.4137392044067383}
{"date":1446263168,"latitude":-41.329170227050781,"longitude":174.80537414550781,"altitude":-3.93572998046875,"speed":2.0160000324249268,"pitch":1.611114501953125,"roll":0.063133582472801208,"yaw":-2.60235595703125,"xAccel":7.7556982040405273,"yAccel":3.0598177909851074,"zAccel":-14.84174919128418}
{"date":1446263168,"latitude":-41.329170227050781,"longitude":174.80537414550781,"altitude":-3.93572998046875,"speed":2.0160000324249268,"pitch":1.6044957637786865,"roll":0.099960885941982269,"yaw":-2.4994456768035889,"xAccel":-20.422161102294922,"yAccel":-5.8413314819335938,"zAccel":14.088571548461914}
{"date":1446263168,"latitude":-41.329170227050781,"longitude":174.80537414550781,"altitude":-3.93572998046875,"speed":2.0160000324249268,"pitch":1.5972522497177124,"roll":0.23777322471141815,"yaw":-2.3485205173492432,"xAccel":0.085891634225845337,"yAccel":2.7402467727661133,"zAccel":1.2296129465103149}
{"date":1446263168,"latitude":-41.329170227050781,"longitude":174.80537414550781,"altitude":-4.1480712890625,"speed":1.9440001249313354,"pitch":1.6412801742553711,"roll":0.32254886627197266,"yaw":-2.0732579231262207,"xAccel":5.6303849220275879,"yAccel":8.4839067459106445,"zAccel":-7.2519078254699707}
{"date":1446263168,"latitude":-41.329170227050781,"longitude":174.80537414550781,"altitude":-4.1480712890625,"speed":1.9440001249313354,"pitch":1.6231849193572998,"roll":0.32002851366996765,"yaw":-1.8781791925430298,"xAccel":-3.0132927894592285,"yAccel":8.2827091217041016,"zAccel":11.602059364318848}
{"date":1446263168,"latitude":-41.329170227050781,"longitude":174.80537414550781,"altitude":-4.1480712890625,"speed":1.9440001249313354,"pitch":1.5456149578094482,"roll":0.29873326420783997,"yaw":-1.8524198532104492,"xAccel":11.704845428466797,"yAccel":-2.4741237163543701,"zAccel":-1.9226502180099487}
{"date":1446263168,"latitude":-41.329170227050781,"longitude":174.80537414550781,"altitude":-4.1480712890625,"speed":1.9440001249313354,"pitch":1.4921785593032837,"roll":0.24828439950942993,"yaw":-1.8556448221206665,"xAccel":-7.3045282363891602,"yAccel":-10.526811599731445,"zAccel":-1.6008827686309814}
{"date":1446263168,"latitude":-41.329166412353516,"longitude":174.80535888671875,"altitude":-3.7601318359375,"speed":1.9440001249313354,"pitch":1.4679229259490967,"roll":0.21973814070224762,"yaw":-1.9060219526290894,"xAccel":-6.5580000877380371,"yAccel":5.0140585899353027,"zAccel":-2.2128267288208008}
{"date":1446263168,"latitude":-41.329166412353516,"longitude":174.80535888671875,"altitude":-3.7601318359375,"speed":1.9440001249313354,"pitch":1.4450548887252808,"roll":0.15466849505901337,"yaw":-1.9796364307403564,"xAccel":8.4716615676879883,"yAccel":-9.3987417221069336,"zAccel":4.8434677124023438}
{"date":1446263168,"latitude":-41.329166412353516,"longitude":174.80535888671875,"altitude":-3.7601318359375,"speed":1.9440001249313354,"pitch":1.3933998346328735,"roll":0.075212933123111725,"yaw":-1.9857956171035767,"xAccel":0.4631175696849823,"yAccel":-7.156165599822998,"zAccel":4.3239126205444336}
{"date":1446263168,"latitude":-41.329166412353516,"longitude":174.80535888671875,"altitude":-3.7601318359375,"speed":1.9440001249313354,"pitch":1.320351243019104,"roll":0.025927174836397171,"yaw":-1.964216947555542,"xAccel":-7.0770673751831055,"yAccel":4.5457210540771484,"zAccel":-3.4052491188049316}
{"date":1446263168,"latitude":-41.329166412353516,"longitude":174.80535888671875,"altitude":-3.7601318359375,"speed":1.9440001249313354,"pitch":1.2623116970062256,"roll":-0.065156616270542145,"yaw":-1.9411166906356812,"xAccel":0.88335675001144409,"yAccel":-10.234287261962891,"zAccel":0.12588202953338623}
{"date":1446263168,"latitude":-41.329170227050781,"longitude":174.80534362792969,"altitude":-4.1485595703125,"speed":1.656000018119812,"pitch":1.3250892162322998,"roll":-0.01463839877396822,"yaw":-1.864392876625061,"xAccel":17.479999542236328,"yAccel":27.148210525512695,"zAccel":0.70126521587371826}
{"date":1446263168,"latitude":-41.329170227050781,"longitude":174.80534362792969,"altitude":-4.1485595703125,"speed":1.656000018119812,"pitch":1.5104342699050903,"roll":0.3372645378112793,"yaw":-1.8699591159820557,"xAccel":-8.2682485580444336,"yAccel":8.8810586929321289,"zAccel":-15.671939849853516}
{"date":1446263168,"latitude":-41.329170227050781,"longitude":174.80534362792969,"altitude":-4.1485595703125,"speed":1.656000018119812,"pitch":1.1202303171157837,"roll":0.42923450469970703,"yaw":-2.3189163208007812,"xAccel":-15.178777694702148,"yAccel":14.614486694335938,"zAccel":-6.9768466949462891}
{"date":1446263168,"latitude":-41.329170227050781,"longitude":174.80534362792969,"altitude":-4.1485595703125,"speed":1.656000018119812,"pitch":0.76314699649810791,"roll":0.30842369794845581,"yaw":-2.5410702228546143,"xAccel":-8.3298978805541992,"yAccel":-8.8593482971191406,"zAccel":-60.654823303222656}
{"date":1446263168,"latitude":-41.329170227050781,"longitude":174.80534362792969,"altitude":-4.1485595703125,"speed":1.656000018119812,"pitch":0.35064482688903809,"roll":0.0065774382092058659,"yaw":-2.6938381195068359,"xAccel":18.652429580688477,"yAccel":12.952205657958984,"zAccel":33.183448791503906}
{"date":1446263168,"latitude":-41.329170227050781,"longitude":174.80534362792969,"altitude":-4.1485595703125,"speed":1.656000018119812,"pitch":0.279002845287323,"roll":0.0065347440540790558,"yaw":-2.6628391742706299,"xAccel":14.476407051086426,"yAccel":-5.7097697257995605,"zAccel":25.443401336669922}
{"date":1446263168,"latitude":-41.329174041748047,"longitude":174.80534362792969,"altitude":-4.107666015625,"speed":1.5479999780654907,"pitch":0.31005403399467468,"roll":0.05541258305311203,"yaw":-2.6430606842041016,"xAccel":-16.028348922729492,"yAccel":-3.6834657192230225,"zAccel":7.6900348663330078}
{"date":1446263168,"latitude":-41.329174041748047,"longitude":174.80534362792969,"altitude":-4.107666015625,"speed":1.5479999780654907,"pitch":0.33316713571548462,"roll":0.093292608857154846,"yaw":-2.6256008148193359,"xAccel":-5.3693246841430664,"yAccel":0.35024538636207581,"zAccel":-12.657077789306641}
{"date":1446263168,"latitude":-41.329174041748047,"longitude":174.80534362792969,"altitude":-4.107666015625,"speed":1.5479999780654907,"pitch":0.36972016096115112,"roll":0.090071186423301697,"yaw":-2.5669128894805908,"xAccel":0.038035809993743896,"yAccel":-2.0847597122192383,"zAccel":4.2679986953735352}
{"date":1446263168,"latitude":-41.329174041748047,"longitude":174.80534362792969,"altitude":-4.107666015625,"speed":1.5479999780654907,"pitch":0.38494423031806946,"roll":0.091584116220474243,"yaw":-2.5323030948638916,"xAccel":-10.193374633789062,"yAccel":-3.5429055690765381,"zAccel":-5.3306264877319336}
{"date":1446263168,"latitude":-41.329174041748047,"longitude":174.80534362792969,"altitude":-4.107666015625,"speed":1.5479999780654907,"pitch":0.39703521132469177,"roll":0.012469962239265442,"yaw":-2.4706368446350098,"xAccel":-1.4736782312393188,"yAccel":-1.2758239507675171,"zAccel":-7.1004533767700195}
{"date":1446263168,"latitude":-41.329174041748047,"longitude":174.80534362792969,"altitude":-4.107666015625,"speed":1.5479999780654907,"pitch":0.39472824335098267,"roll":-0.037623032927513123,"yaw":-2.4036202430725098,"xAccel":5.355710506439209,"yAccel":-3.5285704135894775,"zAccel":1.6990009546279907}
{"date":1446263168,"latitude":-41.329174041748047,"longitude":174.80534362792969,"altitude":-4.47308349609375,"speed":0,"pitch":0.44182118773460388,"roll":-0.032312061637639999,"yaw":-2.3163504600524902,"xAccel":1.6308062076568604,"yAccel":-1.532470703125,"zAccel":4.2664408683776855}
{"date":1446263168,"latitude":-41.329174041748047,"longitude":174.80534362792969,"altitude":-4.47308349609375,"speed":0,"pitch":0.50809073448181152,"roll":-0.033428002148866653,"yaw":-2.2560899257659912,"xAccel":8.5581521987915039,"yAccel":-2.1101200580596924,"zAccel":-4.001121997833252}
{"date":1446263168,"latitude":-41.329174041748047,"longitude":174.80534362792969,"altitude":-4.47308349609375,"speed":0,"pitch":0.52413004636764526,"roll":-0.028501652181148529,"yaw":-2.2169973850250244,"xAccel":-2.5491812229156494,"yAccel":2.9858803749084473,"zAccel":2.1173391342163086}
{"date":1446263168,"latitude":-41.329174041748047,"longitude":174.80534362792969,"altitude":-4.47308349609375,"speed":0,"pitch":0.53844308853149414,"roll":-0.027815308421850204,"yaw":-2.1871449947357178,"xAccel":-1.8198685646057129,"yAccel":1.6690971851348877,"zAccel":5.1705565452575684}
{"date":1446263168,"latitude":-41.329174041748047,"longitude":174.80534362792969,"altitude":-4.3551025390625,"speed":0,"pitch":0.57151782512664795,"roll":-0.033955607563257217,"yaw":-2.148280143737793,"xAccel":2.4354751110076904,"yAccel":3.4310870170593262,"zAccel":-1.5477087497711182}
{"date":1446263168,"latitude":-41.329174041748047,"longitude":174.80534362792969,"altitude":-4.3551025390625,"speed":0,"pitch":0.5788535475730896,"roll":-0.053484398871660233,"yaw":-2.1383769512176514,"xAccel":11.867549896240234,"yAccel":1.5184916257858276,"zAccel":-7.7867269515991211}
{"date":1446263168,"latitude":-41.329174041748047,"longitude":174.80534362792969,"altitude":-4.3551025390625,"speed":0,"pitch":0.58321017026901245,"roll":-0.07262682169675827,"yaw":-2.1252188682556152,"xAccel":-1.6120728254318237,"yAccel":-3.6942369937896729,"zAccel":1.4501427412033081}
{"date":1446263168,"latitude":-41.329174041748047,"longitude":174.80534362792969,"altitude":-4.3551025390625,"speed":0,"pitch":0.60899025201797485,"roll":-0.068984359502792358,"yaw":-2.0992453098297119,"xAccel":1.1026396751403809,"yAccel":-5.3436059951782227,"zAccel":-7.5797758102416992}
{"date":1446263168,"latitude":-41.329174041748047,"longitude":174.80534362792969,"altitude":-4.3551025390625,"speed":0,"pitch":0.59376955032348633,"roll":-0.1035434901714325,"yaw":-2.1314890384674072,"xAccel":8.9756660461425781,"yAccel":3.1819338798522949,"zAccel":7.767066478729248}
{"date":1446263168,"latitude":-41.329174041748047,"longitude":174.80532836914062,"altitude":-4.40130615234375,"speed":1.5119999647140503,"pitch":0.60923987627029419,"roll":-0.095497734844684601,"yaw":-2.1675393581390381,"xAccel":-3.4714217185974121,"yAccel":-0.35442793369293213,"zAccel":0.88792705535888672}
{"date":1446263168,"latitude":-41.329174041748047,"longitude":174.80532836914062,"altitude":-4.40130615234375,"speed":1.5119999647140503,"pitch":0.62342232465744019,"roll":-0.099210448563098907,"yaw":-2.201897144317627,"xAccel":0.83283215761184692,"yAccel":-1.455848217010498,"zAccel":4.7041778564453125}
{"date":1446263168,"latitude":-41.329174041748047,"longitude":174.80532836914062,"altitude":-4.40130615234375,"speed":1.5119999647140503,"pitch":0.65220963954925537,"roll":-0.11805623024702072,"yaw":-2.2257919311523438,"xAccel":0.81485921144485474,"yAccel":-2.3013103008270264,"zAccel":-2.3236804008483887}
{"date":1446263168,"latitude":-41.329174041748047,"longitude":174.80532836914062,"altitude":-4.40130615234375,"speed":1.5119999647140503,"pitch":0.65472793579101562,"roll":-0.12824413180351257,"yaw":-2.2294936180114746,"xAccel":6.5954766273498535,"yAccel":-0.42267492413520813,"zAccel":2.7539751529693604}
{"date":1446263168,"latitude":-41.329174041748047,"longitude":174.80532836914062,"altitude":-4.40130615234375,"speed":1.5119999647140503,"pitch":0.67302477359771729,"roll":-0.15140999853610992,"yaw":-2.2167994976043701,"xAccel":4.0436768531799316,"yAccel":3.8662028312683105,"zAccel":4.4175300598144531}
{"date":1446263168,"latitude":-41.329174041748047,"longitude":174.80532836914062,"altitude":-4.40130615234375,"speed":1.5119999647140503,"pitch":0.72358524799346924,"roll":-0.15855826437473297,"yaw":-2.2137753963470459,"xAccel":13.461626052856445,"yAccel":-4.3113446235656738,"zAccel":-1.5991089344024658}
{"date":1446263168,"latitude":-41.329170227050781,"longitude":174.80532836914062,"altitude":-5.336822509765625,"speed":1.1160000562667847,"pitch":0.72422593832015991,"roll":-0.15479832887649536,"yaw":-2.2085592746734619,"xAccel":2.2943177223205566,"yAccel":-4.472264289855957,"zAccel":0.083420135080814362}
{"date":1446263168,"latitude":-41.329170227050781,"longitude":174.80532836914062,"altitude":-5.336822509765625,"speed":1.1160000562667847,"pitch":0.71112298965454102,"roll":-0.14966768026351929,"yaw":-2.2073318958282471,"xAccel":-1.2329756021499634,"yAccel":1.2072368860244751,"zAccel":5.9418864250183105}
{"date":1446263168,"latitude":-41.329170227050781,"longitude":174.80532836914062,"altitude":-5.336822509765625,"speed":1.1160000562667847,"pitch":0.71625548601150513,"roll":-0.15794610977172852,"yaw":-2.2283496856689453,"xAccel":5.3311591148376465,"yAccel":-0.97650736570358276,"zAccel":3.1471238136291504}
{"date":1446263168,"latitude":-41.329170227050781,"longitude":174.80532836914062,"altitude":-5.336822509765625,"speed":1.1160000562667847,"pitch":0.73645114898681641,"roll":-0.13726571202278137,"yaw":-2.1623635292053223,"xAccel":0.79098165035247803,"yAccel":3.5660736560821533,"zAccel":3.7306215763092041}
{"date":1446263168,"latitude":-41.329170227050781,"longitude":174.80532836914062,"altitude":-6.66912841796875,"speed":1.3680000305175781,"pitch":0.73141509294509888,"roll":-0.15315249562263489,"yaw":-2.1577563285827637,"xAccel":9.8406829833984375,"yAccel":5.7383298873901367,"zAccel":5.12396240234375}
{"date":1446263168,"latitude":-41.329170227050781,"longitude":174.80532836914062,"altitude":-6.66912841796875,"speed":1.3680000305175781,"pitch":0.73419111967086792,"roll":-0.14622388780117035,"yaw":-2.1676313877105713,"xAccel":0.66403788328170776,"yAccel":-1.173879861831665,"zAccel":-3.3614382743835449}
{"date":1446263168,"latitude":-41.329170227050781,"longitude":174.80532836914062,"altitude":-6.66912841796875,"speed":1.3680000305175781,"pitch":0.72151881456375122,"roll":-0.14153178036212921,"yaw":-2.1759612560272217,"xAccel":-8.5044736862182617,"yAccel":0.3469569981098175,"zAccel":0.15158577263355255}
