{"date":0,"latitude":0,"longitude":0,"altitude":0,"speed":0,"pitch":0,"roll":0,"yaw":0,"xAccel":0,"yAccel":0,"zAccel":0}
{"date":1445310590,"latitude":-41.329216000000002,"longitude":174.8082,"altitude":0.35046939999999999,"speed":-3.6000000000000001,"pitch":-3.0006911999999999,"roll":-0.1486557,"yaw":-0.0093630060000000001,"xAccel":1.671665,"yAccel":-10.073998,"zAccel":5.9324579999999996}
{"date":1445310590,"latitude":-41.329216000000002,"longitude":174.8082,"altitude":0.35046939999999999,"speed":-3.6000000000000001,"pitch":-3.0115919999999998,"roll":-0.15723655,"yaw":0.00050668040000000005,"xAccel":-2.5638519999999998,"yAccel":-5.1955460000000002,"zAccel":4.6498850000000003}
{"date":1445310590,"latitude":-41.329216000000002,"longitude":174.8082,"altitude":0.35046939999999999,"speed":-3.6000000000000001,"pitch":-3.0350959999999998,"roll":-0.16783753000000001,"yaw":-0.0091652350000000007,"xAccel":0.10554238000000001,"yAccel":-12.183078999999999,"zAccel":-1.5212455}
{"date":1445310590,"latitude":-41.329216000000002,"longitude":174.8082,"altitude":0.35046939999999999,"speed":-3.6000000000000001,"pitch":-3.0591349999999999,"roll":-0.17162974,"yaw":-0.018246156999999999,"xAccel":0.40620889999999998,"yAccel":-0.19761956999999999,"zAccel":-9.7355230000000006}
{"date":1445310590,"latitude":-41.329216000000002,"longitude":174.8082,"altitude":0.35046939999999999,"speed":-3.6000000000000001,"pitch":-3.0657293999999999,"roll":-0.18517433,"yaw":-0.014568596,"xAccel":8.0973059999999997,"yAccel":-10.701122,"zAccel":-8.1064849999999993}
{"date":1445310590,"latitude":-41.329216000000002,"longitude":174.8082,"altitude":0.35046939999999999,"speed":-3.6000000000000001,"pitch":-3.0527319999999998,"roll":-0.20134625,"yaw":-0.035643465999999999,"xAccel":4.0947719999999999,"yAccel":-9.1025139999999993,"zAccel":-9.1145219999999991}
{"date":1445310590,"latitude":-41.329216000000002,"longitude":174.8082,"altitude":0.35046939999999999,"speed":-3.6000000000000001,"pitch":-3.0072006999999998,"roll":-0.19858907000000001,"yaw":-0.052429635000000002,"xAccel":-2.7303426000000002,"yAccel":-12.473198999999999,"zAccel":-3.5039897}
{"date":1445310590,"latitude":-41.329216000000002,"longitude":174.8082,"altitude":0.35046939999999999,"speed":-3.6000000000000001,"pitch":-2.9549840000000001,"roll":-0.1469674,"yaw":-0.0028039533999999998,"xAccel":3.5735785999999998,"yAccel":-17.167148999999998,"zAccel":17.98096}
{"date":1445310590,"latitude":-41.329216000000002,"longitude":174.8082,"altitude":0.35046939999999999,"speed":-3.6000000000000001,"pitch":-3.0455277000000001,"roll":0.098904110000000003,"yaw":-0.0034367541999999998,"xAccel":-8.3660619999999994,"yAccel":6.9911060000000003,"zAccel":15.940910000000001}
{"date":1445310590,"latitude":-41.329216000000002,"longitude":174.8082,"altitude":0.35046939999999999,"speed":-3.6000000000000001,"pitch":-3.0103369,"roll":0.098647120000000005,"yaw":-0.12912424,"xAccel":7.7063855999999999,"yAccel":7.9855323,"zAccel":18.431709999999999}
{"date":1445310590,"latitude":-41.329216000000002,"longitude":174.8082,"altitude":0.35046939999999999,"speed":-3.6000000000000001,"pitch":-2.9299995999999999,"roll":0.012829342000000001,"yaw":-0.22206527000000001,"xAccel":-9.9887689999999996,"yAccel":-1.793811,"zAccel":15.474112999999999}
{"date":1445310590,"latitude":-41.329216000000002,"longitude":174.8082,"altitude":0.35046939999999999,"speed":-3.6000000000000001,"pitch":-2.9729350000000001,"roll":-0.025665879999999999,"yaw":-0.32010420000000001,"xAccel":-13.023154,"yAccel":3.3139029,"zAccel":8.2501669999999994}
{"date":1445310590,"latitude":-41.329216000000002,"longitude":174.8082,"altitude":0.35046939999999999,"speed":-3.6000000000000001,"pitch":-2.9986389,"roll":-0.030346096999999999,"yaw":-0.40262272999999998,"xAccel":-29.170925,"yAccel":40.367966000000003,"zAccel":5.8176170000000003}
{"date":1445310590,"latitude":-41.329216000000002,"longitude":174.8082,"altitude":0.35046939999999999,"speed":-3.6000000000000001,"pitch":-2.9667417999999999,"roll":-0.054466623999999998,"yaw":-0.44160729999999998,"xAccel":2.9376829999999998,"yAccel":0.020106839000000001,"zAccel":2.4750288}
{"date":1445310590,"latitude":-41.329216000000002,"longitude":174.8082,"altitude":0.35046939999999999,"speed":-3.6000000000000001,"pitch":-2.9915338,"roll":-0.1054214,"yaw":-0.43696109999999999,"xAccel":7.6170244,"yAccel":-15.014652999999999,"zAccel":4.6688499999999999}
{"date":1445310590,"latitude":-41.329216000000002,"longitude":174.8082,"altitude":0.35046939999999999,"speed":-3.6000000000000001,"pitch":-3.0277845999999999,"roll":-0.10382349,"yaw":-0.41255482999999998,"xAccel":5.5618910000000001,"yAccel":-10.457406000000001,"zAccel":7.5644229999999997}
{"date":1445310590,"latitude":-41.329216000000002,"longitude":174.8082,"altitude":0.35046939999999999,"speed":-3.6000000000000001,"pitch":-3.0824218000000001,"roll":-0.078339115000000001,"yaw":-0.39671186000000003,"xAccel":2.7530177,"yAccel":-6.856795,"zAccel":5.7596793000000002}
{"date":1445310590,"latitude":-41.329216000000002,"longitude":174.8082,"altitude":0.35046939999999999,"speed":-3.6000000000000001,"pitch":3.1393632999999999,"roll":-0.041580494000000003,"yaw":-0.39349800000000001,"xAccel":3.3260589,"yAccel":-3.1952275999999999,"zAccel":8.3972029999999993}
{"date":1445310590,"latitude":-41.329216000000002,"longitude":174.8082,"altitude":0.35046939999999999,"speed":-3.6000000000000001,"pitch":3.1091446999999999,"roll":-0.018204089999999999,"yaw":-0.41021413000000001,"xAccel":-5.8623614000000002,"yAccel":-8.4414800000000003,"zAccel":-4.7566996000000001}
{"date":1445310590,"latitude":-41.328682000000001,"longitude":174.80387999999999,"altitude":32.911133,"speed":18.071999999999999,"pitch":3.1262880000000002,"roll":-0.023214559999999999,"yaw":-0.46259435999999998,"xAccel":2.0381887000000001,"yAccel":-7.9457034999999996,"zAccel":-4.7826104000000003}
{"date":1445310590,"latitude":-41.328682000000001,"longitude":174.80387999999999,"altitude":32.911133,"speed":18.071999999999999,"pitch":3.1377492,"roll":-0.061096805999999997,"yaw":-0.50802119999999995,"xAccel":2.6206209999999999,"yAccel":-14.013047,"zAccel":-0.57489336000000002}
{"date":1445310590,"latitude":-41.328682000000001,"longitude":174.80387999999999,"altitude":32.911133,"speed":18.071999999999999,"pitch":3.1081349999999999,"roll":-0.084009059999999997,"yaw":-0.52750653000000003,"xAccel":8.3936405000000001,"yAccel":-19.557877999999999,"zAccel":-16.916922}
{"date":1445310590,"latitude":-41.328667000000003,"longitude":174.80385000000001,"altitude":33.665039999999998,"speed":18.071999999999999,"pitch":3.0154589999999999,"roll":-0.062374029999999997,"yaw":-0.52499819999999997,"xAccel":6.1583033,"yAccel":-3.7134415999999999,"zAccel":-1.8708321999999999}
{"date":1445310590,"latitude":-41.328667000000003,"longitude":174.80385000000001,"altitude":33.665039999999998,"speed":18.071999999999999,"pitch":2.9329499999999999,"roll":0.010413787000000001,"yaw":-0.51560300000000003,"xAccel":-15.241294,"yAccel":-9.1005249999999993,"zAccel":21.211613}
{"date":1445310590,"latitude":-41.328667000000003,"longitude":174.80385000000001,"altitude":33.665039999999998,"speed":18.071999999999999,"pitch":2.9107907000000002,"roll":0.03918613,"yaw":-0.62026775000000001,"xAccel":-20.761955,"yAccel":-3.6462412,"zAccel":6.1038522999999998}
{"date":1445310590,"latitude":-41.328667000000003,"longitude":174.80385000000001,"altitude":33.665039999999998,"speed":18.071999999999999,"pitch":2.9369103999999999,"roll":0.070610985000000001,"yaw":-0.75902884999999998,"xAccel":2.6622271999999998,"yAccel":10.747379,"zAccel":6.2607936999999998}
{"date":1445310590,"latitude":-41.328667000000003,"longitude":174.80385000000001,"altitude":33.665039999999998,"speed":18.071999999999999,"pitch":2.9788350000000001,"roll":0.13391416,"yaw":-0.89220600000000005,"xAccel":20.928941999999999,"yAccel":7.6635264999999997,"zAccel":2.1879477999999999}
{"date":1445310590,"latitude":-41.328667000000003,"longitude":174.80385000000001,"altitude":33.665039999999998,"speed":18.071999999999999,"pitch":2.9740722000000002,"roll":0.12597332999999999,"yaw":-0.88507080000000005,"xAccel":1.2145534,"yAccel":-4.6253222999999997,"zAccel":-2.3292080999999998}
{"date":1445310590,"latitude":-41.328667000000003,"longitude":174.80385000000001,"altitude":33.665039999999998,"speed":18.071999999999999,"pitch":2.9781678,"roll":0.14120562,"yaw":-0.85484945999999995,"xAccel":1.1098167999999999,"yAccel":1.0139195999999999,"zAccel":-7.9876684999999998}
{"date":1445310590,"latitude":-41.328667000000003,"longitude":174.80385000000001,"altitude":33.665039999999998,"speed":18.071999999999999,"pitch":2.9625113000000001,"roll":0.12318301,"yaw":-0.83669590000000005,"xAccel":5.5931410000000001,"yAccel":-17.670908000000001,"zAccel":7.7518883000000001}
{"date":1445310590,"latitude":-41.328667000000003,"longitude":174.80385000000001,"altitude":33.665039999999998,"speed":18.071999999999999,"pitch":2.9990244000000001,"roll":0.10082581,"yaw":-0.84053800000000001,"xAccel":-10.166122,"yAccel":-20.249271,"zAccel":-7.8832396999999998}
{"date":1445310590,"latitude":-41.328667000000003,"longitude":174.80385000000001,"altitude":33.665039999999998,"speed":18.071999999999999,"pitch":2.9836163999999998,"roll":-0.019957171999999999,"yaw":-0.88589554999999998,"xAccel":17.633322,"yAccel":-9.5457870000000007,"zAccel":-14.364568999999999}
{"date":1445310590,"latitude":-41.328685999999998,"longitude":174.80410000000001,"altitude":-24.532897999999999,"speed":2.2320000000000002,"pitch":2.8076968,"roll":-0.39825844999999999,"yaw":-0.82117169999999995,"xAccel":16.711796,"yAccel":16.293279999999999,"zAccel":22.294453000000001}
{"date":1445310720,"latitude":-41.328625000000002,"longitude":174.804,"altitude":-6.7211610000000004,"speed":1.1160000000000001,"pitch":2.2120587999999999,"roll":-0.61913890000000005,"yaw":-0.68401199999999995,"xAccel":5.1852780000000003,"yAccel":56.265970000000003,"zAccel":29.327397999999999}
{"date":1445310720,"latitude":-41.328625000000002,"longitude":174.804,"altitude":-6.7211610000000004,"speed":1.1160000000000001,"pitch":2.7577147000000002,"roll":-0.1100488,"yaw":-0.73910195000000001,"xAccel":11.363816,"yAccel":-13.043218,"zAccel":-1.7110430000000001}
{"date":1445310720,"latitude":-41.328625000000002,"longitude":174.804,"altitude":-6.7211610000000004,"speed":1.1160000000000001,"pitch":2.7763163999999998,"roll":0.016907886,"yaw":-0.31385097000000001,"xAccel":11.076389000000001,"yAccel":-7.1142709999999996,"zAccel":3.3409450000000001}
{"date":1445310720,"latitude":-41.328625000000002,"longitude":174.804,"altitude":-6.7211610000000004,"speed":1.1160000000000001,"pitch":2.9610843999999998,"roll":0.2433583,"yaw":-0.044062838,"xAccel":-43.272747000000003,"yAccel":-26.928761999999999,"zAccel":-13.042427999999999}
{"date":1445310720,"latitude":-41.328625000000002,"longitude":174.804,"altitude":-6.7211610000000004,"speed":1.1160000000000001,"pitch":2.8305570000000002,"roll":0.18128370999999999,"yaw":0.0037872157999999999,"xAccel":-26.901789999999998,"yAccel":-22.95185,"zAccel":23.985277}
{"date":1445310720,"latitude":-41.328625000000002,"longitude":174.804,"altitude":-6.7211610000000004,"speed":1.1160000000000001,"pitch":2.9657817,"roll":0.18539754999999999,"yaw":-0.083708729999999995,"xAccel":11.434521999999999,"yAccel":-7.7800830000000003,"zAccel":-3.822343}
{"date":1445310720,"latitude":-41.328625000000002,"longitude":174.804,"altitude":-6.7211610000000004,"speed":1.1160000000000001,"pitch":2.7100704000000002,"roll":-0.12331435,"yaw":0.095266669999999998,"xAccel":-16.481114999999999,"yAccel":-4.8239840000000003,"zAccel":21.442087000000001}
{"date":1445310720,"latitude":-41.328530000000001,"longitude":174.80408,"altitude":2.9410400000000001,"speed":0.64800000000000002,"pitch":2.8049495000000002,"roll":-0.032052364,"yaw":0.012402343,"xAccel":-24.949987,"yAccel":12.052552,"zAccel":17.952908000000001}
{"date":1445310720,"latitude":-41.328530000000001,"longitude":174.80408,"altitude":2.9410400000000001,"speed":0.64800000000000002,"pitch":2.886765,"roll":0.11184547,"yaw":-0.041611443999999997,"xAccel":4.2932620000000004,"yAccel":-38.800033999999997,"zAccel":-16.373642}
{"date":1445310720,"latitude":-41.328530000000001,"longitude":174.80408,"altitude":2.9410400000000001,"speed":0.64800000000000002,"pitch":2.725238,"roll":-0.039713457000000001,"yaw":-0.08126456,"xAccel":-16.766323,"yAccel":46.221577000000003,"zAccel":7.7300339999999998}
{"date":1445310720,"latitude":-41.328530000000001,"longitude":174.80408,"altitude":4.039612,"speed":0,"pitch":2.7128382000000002,"roll":0.046754192999999999,"yaw":-0.092509620000000001,"xAccel":-3.1342062999999998,"yAccel":-3.1691767999999998,"zAccel":15.029648}
{"date":1445310720,"latitude":-41.328530000000001,"longitude":174.80408,"altitude":4.039612,"speed":0,"pitch":2.8889694000000001,"roll":0.23106779,"yaw":0.08442392,"xAccel":-2.0967680999999998,"yAccel":-38.484158000000001,"zAccel":29.721665999999999}
{"date":1445310720,"latitude":-41.328530000000001,"longitude":174.80408,"altitude":4.039612,"speed":0,"pitch":3.1148763000000002,"roll":0.20455825,"yaw":0.11812986,"xAccel":-30.548656000000001,"yAccel":-12.080113000000001,"zAccel":-32.06371}
{"date":1445310720,"latitude":-41.328530000000001,"longitude":174.80408,"altitude":3.3470460000000002,"speed":0,"pitch":2.9742829999999998,"roll":0.29204156999999997,"yaw":0.023614697,"xAccel":-13.636267999999999,"yAccel":4.7525295999999999,"zAccel":15.333109}
{"date":1445310720,"latitude":-41.328530000000001,"longitude":174.80408,"altitude":3.3470460000000002,"speed":0,"pitch":2.8455734000000001,"roll":0.10316861400000001,"yaw":0.039364207999999998,"xAccel":12.120468000000001,"yAccel":10.469315,"zAccel":-5.5889515999999997}
{"date":1445310720,"latitude":-41.328530000000001,"longitude":174.80408,"altitude":3.3470460000000002,"speed":0,"pitch":2.6338843999999999,"roll":0.22632445000000001,"yaw":0.059551316999999999,"xAccel":-20.139927,"yAccel":-1.8684913999999999,"zAccel":23.023771}
{"date":1445310720,"latitude":-41.328530000000001,"longitude":174.80408,"altitude":3.3470460000000002,"speed":0,"pitch":2.61755,"roll":0.14753202000000001,"yaw":0.053571283999999997,"xAccel":-6.6564603,"yAccel":-19.319217999999999,"zAccel":9.1520700000000001}
{"date":1445310720,"latitude":-41.328530000000001,"longitude":174.80408,"altitude":3.3470460000000002,"speed":0,"pitch":2.7268154999999998,"roll":0.14037082000000001,"yaw":0.044116320000000001,"xAccel":0.73419343999999997,"yAccel":-5.8695570000000004,"zAccel":3.5797226000000002}
{"date":1445310720,"latitude":-41.328530000000001,"longitude":174.80408,"altitude":3.3470460000000002,"speed":0,"pitch":2.8744190000000001,"roll":-0.014498400999999999,"yaw":0.0045138510000000001,"xAccel":7.8061923999999996,"yAccel":-2.9478409999999999,"zAccel":-6.9027700000000003}
{"date":1445310720,"latitude":-41.328586999999999,"longitude":174.80408,"altitude":-1.6529541000000001,"speed":0,"pitch":2.9685112999999999,"roll":0.51329314999999998,"yaw":-0.087243399999999999,"xAccel":9.1665109999999999,"yAccel":-36.932319999999997,"zAccel":16.161370999999999}
{"date":1445310720,"latitude":-41.328586999999999,"longitude":174.80408,"altitude":-1.6529541000000001,"speed":0,"pitch":3.0867217,"roll":0.4417953,"yaw":0.22501554000000001,"xAccel":-28.938638999999998,"yAccel":2.3317356,"zAccel":29.718675999999999}
{"date":1445310720,"latitude":-41.328586999999999,"longitude":174.80408,"altitude":-1.6529541000000001,"speed":0,"pitch":3.0165882000000002,"roll":0.19487088999999999,"yaw":0.20565033999999999,"xAccel":61.965000000000003,"yAccel":0.27208011999999998,"zAccel":24.290296999999999}
{"date":1445310720,"latitude":-41.328586999999999,"longitude":174.80408,"altitude":-1.6529541000000001,"speed":0,"pitch":-3.0819070000000002,"roll":0.17952159000000001,"yaw":0.22054325,"xAccel":0.32811615,"yAccel":-20.436724000000002,"zAccel":-45.701653}
{"date":1445310720,"latitude":-41.328586999999999,"longitude":174.80408,"altitude":-1.8252562999999999,"speed":0,"pitch":-3.1105603999999998,"roll":0.20394216000000001,"yaw":0.2215377,"xAccel":-2.4534676000000002,"yAccel":-2.5837162,"zAccel":2.4946869999999999}
{"date":1445310720,"latitude":-41.328586999999999,"longitude":174.80408,"altitude":-1.8252562999999999,"speed":0,"pitch":3.072845,"roll":0.23919493999999999,"yaw":0.25132880000000002,"xAccel":22.741436,"yAccel":-16.914793,"zAccel":-102.986565}
{"date":1445310720,"latitude":-41.328586999999999,"longitude":174.80408,"altitude":-1.8252562999999999,"speed":0,"pitch":0.96996265999999998,"roll":0.55238896999999998,"yaw":-1.5607408,"xAccel":-7.7816687,"yAccel":-10.370763999999999,"zAccel":-32.591619999999999}
{"date":1445310720,"latitude":-41.328586999999999,"longitude":174.80408,"altitude":-1.8252562999999999,"speed":0,"pitch":1.1321848999999999,"roll":0.12849906,"yaw":-1.9327183999999999,"xAccel":25.515989999999999,"yAccel":1.3432808000000001,"zAccel":-3.6827765000000001}
{"date":1445310720,"latitude":-41.328586999999999,"longitude":174.80408,"altitude":-2.8771973000000002,"speed":0,"pitch":0.93331534000000005,"roll":0.54947590000000002,"yaw":-1.8859963,"xAccel":-4.5539189999999996,"yAccel":35.554893,"zAccel":-22.573277999999998}
{"date":1445310720,"latitude":-41.328586999999999,"longitude":174.80408,"altitude":-2.8771973000000002,"speed":0,"pitch":-1.0377141999999999,"roll":0.83159685000000005,"yaw":-3.0888300000000002,"xAccel":20.595758,"yAccel":43.055500000000002,"zAccel":-10.5931}
{"date":1445310720,"latitude":-41.328586999999999,"longitude":174.80408,"altitude":-2.8771973000000002,"speed":0,"pitch":-1.8170561999999999,"roll":0.0084505090000000001,"yaw":2.8617525000000001,"xAccel":15.925302,"yAccel":28.417093000000001,"zAccel":27.924630000000001}
{"date":1445310720,"latitude":-41.328586999999999,"longitude":174.80408,"altitude":-2.8771973000000002,"speed":0,"pitch":-1.8128833,"roll":-0.23602627000000001,"yaw":-3.0939877,"xAccel":-15.158079000000001,"yAccel":35.214314000000002,"zAccel":24.873816999999999}
{"date":1445310720,"latitude":-41.328586999999999,"longitude":174.80408,"altitude":-2.8771973000000002,"speed":0,"pitch":-1.5165019,"roll":-0.22152078,"yaw":3.087831,"xAccel":0.76424574999999995,"yAccel":2.0563075999999998,"zAccel":2.5702061999999999}
{"date":1445310720,"latitude":-41.328586999999999,"longitude":174.80408,"altitude":-2.8771973000000002,"speed":0,"pitch":-1.2784367999999999,"roll":-0.15029756999999999,"yaw":2.9646987999999999,"xAccel":-16.972137,"yAccel":-82.868369999999999,"zAccel":-33.441707999999998}
{"date":1445310720,"latitude":-41.328586999999999,"longitude":174.80408,"altitude":-3.1401366999999998,"speed":0,"pitch":-1.3953886,"roll":-0.38537886999999998,"yaw":-2.267239,"xAccel":0.42930045999999999,"yAccel":38.861893000000002,"zAccel":-29.717789}
{"date":1445310720,"latitude":-41.328586999999999,"longitude":174.80408,"altitude":-3.1401366999999998,"speed":0,"pitch":-1.5430775999999999,"roll":-0.21033331999999999,"yaw":-0.69730716999999998,"xAccel":-24.160755000000002,"yAccel":-50.570765999999999,"zAccel":-21.851058999999999}
{"date":1445310720,"latitude":-41.328586999999999,"longitude":174.80408,"altitude":-3.1401366999999998,"speed":0,"pitch":-1.4283606,"roll":0.25686425000000002,"yaw":-0.88398790000000005,"xAccel":21.329270999999999,"yAccel":61.438052999999996,"zAccel":-0.72618866000000004}
{"date":1445310720,"latitude":-41.328586999999999,"longitude":174.80408,"altitude":-4.1086425999999996,"speed":0,"pitch":-1.2092284,"roll":0.34952167000000001,"yaw":-0.88607340000000001,"xAccel":26.851960999999999,"yAccel":-0.88552414999999995,"zAccel":-12.832753}
{"date":1445310720,"latitude":-41.328586999999999,"longitude":174.80408,"altitude":-4.1086425999999996,"speed":0,"pitch":-1.3388173999999999,"roll":0.20284176000000001,"yaw":-0.89773539999999996,"xAccel":13.886208999999999,"yAccel":20.37829,"zAccel":-14.982733}
{"date":1445310720,"latitude":-41.328586999999999,"longitude":174.80408,"altitude":-4.1086425999999996,"speed":0,"pitch":-1.5665846999999999,"roll":0.16058812,"yaw":-1.707052,"xAccel":20.765879999999999,"yAccel":24.032284000000001,"zAccel":21.941431000000001}
{"date":1445310720,"latitude":-41.328586999999999,"longitude":174.80408,"altitude":-4.1086425999999996,"speed":0,"pitch":-1.4004208,"roll":0.41163418000000002,"yaw":-2.9068073999999999,"xAccel":58.357925000000002,"yAccel":55.053657999999999,"zAccel":-6.6812196000000004}
{"date":1445310720,"latitude":-41.328586999999999,"longitude":174.80408,"altitude":-4.680542,"speed":0,"pitch":-1.4968386,"roll":-0.00058116109999999999,"yaw":-1.8196939999999999,"xAccel":6.3963520000000003,"yAccel":30.256900000000002,"zAccel":-11.794245}
{"date":1445310720,"latitude":-41.328586999999999,"longitude":174.80408,"altitude":-4.680542,"speed":0,"pitch":-1.6800051,"roll":-0.017272042000000001,"yaw":-0.015560822,"xAccel":-12.539495000000001,"yAccel":-30.555513000000001,"zAccel":53.458893000000003}
{"date":1445310720,"latitude":-41.328586999999999,"longitude":174.80408,"altitude":-4.680542,"speed":0,"pitch":-1.6648293999999999,"roll":0.024286622000000001,"yaw":-0.40499225,"xAccel":16.043839999999999,"yAccel":26.806290000000001,"zAccel":6.5119309999999997}
{"date":1445310720,"latitude":-41.328586999999999,"longitude":174.80408,"altitude":-4.680542,"speed":0,"pitch":-1.5447289,"roll":-0.13927709999999999,"yaw":0.11140361999999999,"xAccel":-68.046850000000006,"yAccel":3.5944517,"zAccel":39.232444999999998}
{"date":1445310720,"latitude":-41.328586999999999,"longitude":174.80408,"altitude":-4.680542,"speed":0,"pitch":-1.8700781,"roll":-0.23548691999999999,"yaw":1.1373206,"xAccel":-28.292283999999999,"yAccel":-48.093395000000001,"zAccel":41.223089999999999}
{"date":1445310720,"latitude":-41.328586999999999,"longitude":174.80408,"altitude":-4.5503539999999996,"speed":0,"pitch":-1.4910622,"roll":-0.83511113999999997,"yaw":0.033253465000000003,"xAccel":177.31093999999999,"yAccel":100.26524000000001,"zAccel":100.97035}
{"date":1445310720,"latitude":-41.328586999999999,"longitude":174.80408,"altitude":-4.5503539999999996,"speed":0,"pitch":-2.9299262000000001,"roll":-1.1671121,"yaw":1.1445991,"xAccel":-41.682769999999998,"yAccel":84.530090000000001,"zAccel":39.231265999999998}
{"date":1445310720,"latitude":-41.328586999999999,"longitude":174.80408,"altitude":-4.5503539999999996,"speed":0,"pitch":-0.6368644,"roll":-1.3204743000000001,"yaw":-1.6557991999999999,"xAccel":-27.348969,"yAccel":-14.155854,"zAccel":-7.8885035999999999}
{"date":1445310720,"latitude":-41.328586999999999,"longitude":174.80408,"altitude":-4.5503539999999996,"speed":0,"pitch":-0.23587332999999999,"roll":-1.3476584,"yaw":-2.5986151999999998,"xAccel":29.424710000000001,"yAccel":63.525199999999998,"zAccel":23.152239000000002}
{"date":1445310720,"latitude":-41.328586999999999,"longitude":174.80408,"altitude":-4.6059570000000001,"speed":0,"pitch":-0.39770993999999998,"roll":-1.1530069999999999,"yaw":-2.5232589999999999,"xAccel":-27.050972000000002,"yAccel":-1.2203487,"zAccel":-18.701550999999998}
{"date":1445310720,"latitude":-41.328586999999999,"longitude":174.80408,"altitude":-4.6059570000000001,"speed":0,"pitch":-0.39150616999999999,"roll":-0.88064810000000004,"yaw":-2.3238470000000002,"xAccel":-19.943532999999999,"yAccel":68.754679999999993,"zAccel":-84.31335}
{"date":1445310720,"latitude":-41.328586999999999,"longitude":174.80408,"altitude":-4.6059570000000001,"speed":0,"pitch":-1.0462324999999999,"roll":-0.62704709999999997,"yaw":-2.3405814,"xAccel":7.7687780000000002,"yAccel":34.405230000000003,"zAccel":-26.404841999999999}
{"date":1445310720,"latitude":-41.328586999999999,"longitude":174.80408,"altitude":-4.6059570000000001,"speed":0,"pitch":-1.5643377000000001,"roll":-0.24751644,"yaw":-2.1387415000000001,"xAccel":-18.348866999999998,"yAccel":-38.625169999999997,"zAccel":82.494560000000007}
{"date":1445310720,"latitude":-41.328586999999999,"longitude":174.80408,"altitude":-4.9574585000000004,"speed":0,"pitch":-0.77663890000000002,"roll":-0.24375670999999999,"yaw":-2.6345341000000002,"xAccel":-26.608450000000001,"yAccel":48.775641999999998,"zAccel":50.223987999999999}
{"date":1445310720,"latitude":-41.328586999999999,"longitude":174.80408,"altitude":-4.9574585000000004,"speed":0,"pitch":-0.40341365000000001,"roll":-0.22280179999999999,"yaw":-2.0231590000000002,"xAccel":16.540476000000002,"yAccel":21.107609,"zAccel":5.3462050000000003}
{"date":1445310720,"latitude":-41.328586999999999,"longitude":174.80408,"altitude":-4.9574585000000004,"speed":0,"pitch":-1.2081431,"roll":0.094294929999999999,"yaw":-2.0610620000000002,"xAccel":-2.3276385999999998,"yAccel":-23.015225999999998,"zAccel":73.698400000000007}
{"date":1445310720,"latitude":-41.328586999999999,"longitude":174.80408,"altitude":-4.9574585000000004,"speed":0,"pitch":-1.4308717,"roll":0.14663047000000001,"yaw":-1.6916237000000001,"xAccel":61.542014999999999,"yAccel":-12.599320000000001,"zAccel":19.610409000000001}
{"date":1445310720,"latitude":-41.328617000000001,"longitude":174.80410000000001,"altitude":-5.6189879999999999,"speed":1.1160000000000001,"pitch":-0.89007544999999999,"roll":0.51977485000000001,"yaw":-1.4258659,"xAccel":-13.083297,"yAccel":-79.123090000000005,"zAccel":-113.49042}
{"date":1445310720,"latitude":-41.328617000000001,"longitude":174.80410000000001,"altitude":-5.6189879999999999,"speed":1.1160000000000001,"pitch":-0.88628450000000003,"roll":0.57315519999999998,"yaw":-0.67529189999999994,"xAccel":55.156306999999998,"yAccel":-19.051828,"zAccel":103.987076}
{"date":1445310720,"latitude":-41.328617000000001,"longitude":174.80410000000001,"altitude":-5.6189879999999999,"speed":1.1160000000000001,"pitch":-0.7277998,"roll":0.55951744000000003,"yaw":-0.62564874000000004,"xAccel":-28.277557000000002,"yAccel":35.083840000000002,"zAccel":235.51292000000001}
{"date":1445310720,"latitude":-41.328617000000001,"longitude":174.80410000000001,"altitude":-5.6189879999999999,"speed":1.1160000000000001,"pitch":-0.92985963999999999,"roll":-0.024788560000000001,"yaw":-0.8545625,"xAccel":0.71048469999999997,"yAccel":52.613329999999998,"zAccel":102.83358}
{"date":1445310720,"latitude":-41.328617000000001,"longitude":174.80410000000001,"altitude":-5.6189879999999999,"speed":1.1160000000000001,"pitch":-1.4244030999999999,"roll":-0.50716249999999996,"yaw":-0.64163250000000005,"xAccel":27.675229999999999,"yAccel":39.790382000000001,"zAccel":39.939166999999998}
{"date":1445310720,"latitude":-41.328617000000001,"longitude":174.80410000000001,"altitude":-5.0525820000000001,"speed":0,"pitch":-1.3215424,"roll":-0.61112416000000003,"yaw":-0.78655416,"xAccel":-26.243289999999998,"yAccel":-25.620280000000001,"zAccel":-42.369712999999997}
{"date":1445310720,"latitude":-41.328617000000001,"longitude":174.80410000000001,"altitude":-5.0525820000000001,"speed":0,"pitch":-2.0581830000000001,"roll":-0.43994270000000002,"yaw":-0.62907000000000002,"xAccel":-14.320328,"yAccel":-46.240288,"zAccel":84.239395000000002}
{"date":1445310720,"latitude":-41.328617000000001,"longitude":174.80410000000001,"altitude":-5.0525820000000001,"speed":0,"pitch":-1.6488974000000001,"roll":-0.47130758,"yaw":-0.44455763999999998,"xAccel":7.87547,"yAccel":39.088493,"zAccel":-10.887513999999999}
{"date":1445310720,"latitude":-41.328617000000001,"longitude":174.80410000000001,"altitude":-5.0525820000000001,"speed":0,"pitch":-1.240313,"roll":-0.80201423000000005,"yaw":-0.72135322999999996,"xAccel":-69.509159999999994,"yAccel":-30.422798,"zAccel":154.58875}
{"date":1445310720,"latitude":-41.328617000000001,"longitude":174.80410000000001,"altitude":-5.0525820000000001,"speed":0,"pitch":0.6000413,"roll":-0.27207974000000001,"yaw":-1.5458224,"xAccel":37.687935000000003,"yAccel":103.57867400000001,"zAccel":-20.347598999999999}
{"date":1445310720,"latitude":-41.328617000000001,"longitude":174.80410000000001,"altitude":-6.1258239999999997,"speed":0,"pitch":1.3669467,"roll":0.017579865,"yaw":-1.0952900999999999,"xAccel":-2.2826314000000001,"yAccel":99.386795000000006,"zAccel":-40.861668000000002}
{"date":1445310720,"latitude":-41.328617000000001,"longitude":174.80410000000001,"altitude":-6.1258239999999997,"speed":0,"pitch":1.2113265,"roll":-0.041190147000000003,"yaw":-1.4584556,"xAccel":63.696784999999998,"yAccel":205.86873,"zAccel":18.987165000000001}
{"date":1445310720,"latitude":-41.328617000000001,"longitude":174.80410000000001,"altitude":-6.1258239999999997,"speed":0,"pitch":1.0830724,"roll":-0.052245904000000003,"yaw":-1.4838709999999999,"xAccel":16.547499999999999,"yAccel":10.042756000000001,"zAccel":27.048739999999999}
{"date":1445310720,"latitude":-41.328617000000001,"longitude":174.80410000000001,"altitude":-6.3662415000000001,"speed":0,"pitch":1.1309041,"roll":0.013069898999999999,"yaw":-1.4873612,"xAccel":3.6384954,"yAccel":7.7403969999999997,"zAccel":12.067261999999999}
{"date":1445310720,"latitude":-41.328617000000001,"longitude":174.80410000000001,"altitude":-6.3662415000000001,"speed":0,"pitch":1.6841147000000001,"roll":0.018587482999999998,"yaw":-1.4105893,"xAccel":-6.4223036999999996,"yAccel":16.184121999999999,"zAccel":4.7886179999999996}
{"date":1445310720,"latitude":-41.328617000000001,"longitude":174.80410000000001,"altitude":-6.3662415000000001,"speed":0,"pitch":1.5676483999999999,"roll":0.045712824999999999,"yaw":-1.3798212999999999,"xAccel":-8.9557000000000002,"yAccel":13.482991999999999,"zAccel":-31.097549999999998}
{"date":1445310720,"latitude":-41.328617000000001,"longitude":174.80410000000001,"altitude":-6.3662415000000001,"speed":0,"pitch":1.6313434,"roll":0.11892474,"yaw":-1.3566663000000001,"xAccel":3.8200270000000001,"yAccel":-20.852868999999998,"zAccel":5.3399343000000004}
{"date":1445310720,"latitude":-41.328617000000001,"longitude":174.80410000000001,"altitude":-6.3662415000000001,"speed":0,"pitch":1.7011232000000001,"roll":0.096998303999999994,"yaw":-1.3304571999999999,"xAccel":-17.239505999999999,"yAccel":-1.3919522,"zAccel":22.015246999999999}
{"date":1445310720,"latitude":-41.328598,"longitude":174.80410000000001,"altitude":-4.7713013000000002,"speed":2.2679999999999998,"pitch":1.5989150000000001,"roll":0.10299887000000001,"yaw":-1.3310135999999999,"xAccel":1.4010695,"yAccel":1.8736416,"zAccel":19.120446999999999}
{"date":1445310720,"latitude":-41.328598,"longitude":174.80410000000001,"altitude":-4.7713013000000002,"speed":2.2679999999999998,"pitch":1.5349151999999999,"roll":0.082032144000000001,"yaw":-1.319347,"xAccel":-15.026808000000001,"yAccel":-2.7487520000000001,"zAccel":7.6002584000000004}
{"date":1445310720,"latitude":-41.328598,"longitude":174.80410000000001,"altitude":-4.7713013000000002,"speed":2.2679999999999998,"pitch":1.5161442999999999,"roll":0.078599000000000002,"yaw":-1.3456941,"xAccel":18.633669000000001,"yAccel":-6.1002755000000004,"zAccel":19.702390000000001}
{"date":1445310720,"latitude":-41.328598,"longitude":174.80410000000001,"altitude":-4.7713013000000002,"speed":2.2679999999999998,"pitch":1.5128009,"roll":0.091465530000000003,"yaw":-1.3669642,"xAccel":14.768876000000001,"yAccel":8.8246669999999998,"zAccel":6.8957886999999998}
{"date":1445310720,"latitude":-41.328598,"longitude":174.80410000000001,"altitude":-4.7713013000000002,"speed":2.2679999999999998,"pitch":1.5030123,"roll":0.073991650000000006,"yaw":-1.3550361,"xAccel":-5.4387007000000001,"yAccel":16.515497,"zAccel":11.557396000000001}
{"date":1445310720,"latitude":-41.328598,"longitude":174.80410000000001,"altitude":-4.7713013000000002,"speed":2.2679999999999998,"pitch":1.5245626999999999,"roll":0.071029439999999999,"yaw":-1.3514199,"xAccel":24.446217000000001,"yAccel":-6.3874893000000004,"zAccel":4.2064675999999999}
{"date":1445310720,"latitude":-41.328598,"longitude":174.80410000000001,"altitude":-4.7713013000000002,"speed":2.2679999999999998,"pitch":1.5586412000000001,"roll":0.028753150000000002,"yaw":-1.3726826999999999,"xAccel":15.762491000000001,"yAccel":-2.3619509999999999,"zAccel":3.7212334}
{"date":1445310720,"latitude":-41.328598,"longitude":174.80410000000001,"altitude":-4.7713013000000002,"speed":2.2679999999999998,"pitch":1.6144818999999999,"roll":0.035071082000000003,"yaw":-1.3932644999999999,"xAccel":35.056987999999997,"yAccel":-7.7892869999999998,"zAccel":-12.034133000000001}
{"date":1445310720,"latitude":-41.328598,"longitude":174.80410000000001,"altitude":-4.7713013000000002,"speed":2.2679999999999998,"pitch":1.5921103999999999,"roll":0.046985480000000003,"yaw":-1.3506231,"xAccel":-12.966754999999999,"yAccel":-0.20781812,"zAccel":11.973865999999999}
{"date":1445310720,"latitude":-41.328583000000002,"longitude":174.80408,"altitude":-3.4801636,"speed":6.6239999999999997,"pitch":1.635346,"roll":0.078504740000000003,"yaw":-1.3272965999999999,"xAccel":16.896978000000001,"yAccel":11.660902,"zAccel":0.77266734999999998}
{"date":1445310720,"latitude":-41.328583000000002,"longitude":174.80408,"altitude":-3.4801636,"speed":6.6239999999999997,"pitch":1.6707578000000001,"roll":0.119561605,"yaw":-1.2529072000000001,"xAccel":3.5201020000000001,"yAccel":36.801636000000002,"zAccel":18.009155}
{"date":1445310720,"latitude":-41.328583000000002,"longitude":174.80408,"altitude":-3.4801636,"speed":6.6239999999999997,"pitch":1.7454426999999999,"roll":0.12753286999999999,"yaw":-1.2152301999999999,"xAccel":6.5313049999999997,"yAccel":-7.4891233000000001,"zAccel":17.314219999999999}
{"date":1445310720,"latitude":-41.328583000000002,"longitude":174.80408,"altitude":-3.4801636,"speed":6.6239999999999997,"pitch":1.7536438000000001,"roll":0.15217254,"yaw":-1.1410117,"xAccel":-16.567481999999998,"yAccel":-14.296253999999999,"zAccel":-3.7311966000000001}
{"date":1445310720,"latitude":-41.328583000000002,"longitude":174.80408,"altitude":-3.4801636,"speed":6.6239999999999997,"pitch":1.7772481,"roll":0.14585848000000001,"yaw":-1.1453631,"xAccel":1.4848686,"yAccel":4.8785230000000004,"zAccel":1.9782461}
{"date":1445310720,"latitude":-41.328583000000002,"longitude":174.80408,"altitude":-3.4801636,"speed":6.6239999999999997,"pitch":1.7402724000000001,"roll":0.1353364,"yaw":-1.2279783,"xAccel":-9.6643740000000005,"yAccel":7.1676745000000004,"zAccel":18.023099999999999}
{"date":1445310720,"latitude":-41.328583000000002,"longitude":174.80408,"altitude":-3.4801636,"speed":6.6239999999999997,"pitch":1.820092,"roll":0.112116694,"yaw":-1.2539,"xAccel":-10.183265,"yAccel":-7.4855022,"zAccel":4.8562927}
{"date":1445310720,"latitude":-41.328583000000002,"longitude":174.80408,"altitude":-3.4801636,"speed":6.6239999999999997,"pitch":1.7630423,"roll":0.13338825000000001,"yaw":-1.3821976,"xAccel":4.1135140000000003,"yAccel":-21.496223000000001,"zAccel":9.8561720000000008}
{"date":1445310720,"latitude":-41.328583000000002,"longitude":174.80408,"altitude":-3.4801636,"speed":6.6239999999999997,"pitch":1.7220224,"roll":0.11382927,"yaw":-1.4882618000000001,"xAccel":-1.9991828,"yAccel":-0.090385384999999999,"zAccel":9.5171019999999995}
{"date":1445310720,"latitude":-41.328583000000002,"longitude":174.80408,"altitude":-3.4801636,"speed":6.6239999999999997,"pitch":1.6351713000000001,"roll":0.10005493999999999,"yaw":-1.4767393,"xAccel":17.74943,"yAccel":15.501654,"zAccel":6.0209283999999998}
{"date":1445310720,"latitude":-41.328583000000002,"longitude":174.80408,"altitude":-3.4801636,"speed":6.6239999999999997,"pitch":1.5703145000000001,"roll":0.079163566000000005,"yaw":-1.4565307000000001,"xAccel":8.04542,"yAccel":1.4553020999999999,"zAccel":9.2583099999999998}
{"date":1445310720,"latitude":-41.328586999999999,"longitude":174.80408,"altitude":-4.5491333000000003,"speed":6.6239999999999997,"pitch":1.4970091999999999,"roll":0.034940935999999999,"yaw":-1.4400533,"xAccel":12.804296000000001,"yAccel":7.3879729999999997,"zAccel":15.34671}
{"date":1445310720,"latitude":-41.328586999999999,"longitude":174.80408,"altitude":-4.5491333000000003,"speed":6.6239999999999997,"pitch":1.4877058000000001,"roll":-0.015174375,"yaw":-1.3977113999999999,"xAccel":8.8082429999999992,"yAccel":-1.7511299,"zAccel":16.973063}
{"date":1445310720,"latitude":-41.328586999999999,"longitude":174.80408,"altitude":-4.5491333000000003,"speed":6.6239999999999997,"pitch":1.5376160999999999,"roll":-0.030947035000000001,"yaw":-1.3853062,"xAccel":-9.1488969999999998,"yAccel":15.523629,"zAccel":10.641387}
{"date":1445310720,"latitude":-41.328586999999999,"longitude":174.80408,"altitude":-4.5491333000000003,"speed":6.6239999999999997,"pitch":1.5526002999999999,"roll":-0.009521781,"yaw":-1.3751191,"xAccel":-2.9815825999999999,"yAccel":-12.621795000000001,"zAccel":21.264078000000001}
{"date":1445310720,"latitude":-41.328586999999999,"longitude":174.80408,"altitude":-4.5491333000000003,"speed":6.6239999999999997,"pitch":1.6146419999999999,"roll":-0.017764648000000001,"yaw":-1.4347041,"xAccel":4.9695396000000001,"yAccel":-10.187249,"zAccel":8.1330799999999996}
{"date":1445310720,"latitude":-41.328586999999999,"longitude":174.80408,"altitude":-4.5491333000000003,"speed":6.6239999999999997,"pitch":1.6751735999999999,"roll":-0.022089127,"yaw":-1.4588093,"xAccel":-2.1248097000000001,"yAccel":-1.5923642,"zAccel":4.2791610000000002}
{"date":1445310720,"latitude":-41.328586999999999,"longitude":174.80408,"altitude":-4.5491333000000003,"speed":6.6239999999999997,"pitch":1.7348058,"roll":-0.022209816,"yaw":-1.4639766000000001,"xAccel":-2.0148052999999999,"yAccel":0.43121039999999999,"zAccel":2.7721596000000002}
{"date":1445310720,"latitude":-41.328586999999999,"longitude":174.80408,"altitude":-4.5491333000000003,"speed":6.6239999999999997,"pitch":1.7054476000000001,"roll":-0.036670427999999998,"yaw":-1.4606398,"xAccel":2.0741355000000001,"yAccel":2.3012114000000001,"zAccel":4.3654603999999999}
{"date":1445310720,"latitude":-41.328586999999999,"longitude":174.80408,"altitude":-4.5491333000000003,"speed":6.6239999999999997,"pitch":1.7029460000000001,"roll":-0.048459492999999999,"yaw":-1.4572548000000001,"xAccel":0.93902810000000003,"yAccel":0.50708589999999998,"zAccel":4.9503073999999998}
{"date":1445310720,"latitude":-41.328569999999999,"longitude":174.80408,"altitude":-4.3375854,"speed":6.6239999999999997,"pitch":1.7294613000000001,"roll":-0.045940875999999999,"yaw":-1.4468272,"xAccel":-4.3056064000000003,"yAccel":-4.3113239999999999,"zAccel":-7.7167219999999999}
{"date":1445310720,"latitude":-41.328569999999999,"longitude":174.80408,"altitude":-4.3375854,"speed":6.6239999999999997,"pitch":1.7139978,"roll":-0.044129549999999997,"yaw":-1.4230691,"xAccel":18.105871,"yAccel":3.1296312999999998,"zAccel":14.864665}
{"date":1445310720,"latitude":-41.328569999999999,"longitude":174.80408,"altitude":-4.3375854,"speed":6.6239999999999997,"pitch":1.5848911999999999,"roll":-0.088458159999999994,"yaw":-1.3188827000000001,"xAccel":-4.3741402999999996,"yAccel":3.8807347000000001,"zAccel":6.9199776999999996}
{"date":1445310720,"latitude":-41.328569999999999,"longitude":174.80408,"altitude":-4.3375854,"speed":6.6239999999999997,"pitch":1.4963542000000001,"roll":-0.082539130000000002,"yaw":-1.2912914,"xAccel":-10.743933,"yAccel":19.140626999999999,"zAccel":1.644069}
{"date":1445310720,"latitude":-41.328569999999999,"longitude":174.80408,"altitude":-4.3375854,"speed":6.6239999999999997,"pitch":1.4265722000000001,"roll":-0.035983473000000002,"yaw":-1.2929520999999999,"xAccel":8.6415030000000002,"yAccel":9.2096,"zAccel":-1.5045790000000001}
{"date":1445310720,"latitude":-41.328569999999999,"longitude":174.80408,"altitude":-4.3375854,"speed":6.6239999999999997,"pitch":1.3901631999999999,"roll":-0.013193135,"yaw":-1.3177763,"xAccel":-7.4121094000000003,"yAccel":15.315440000000001,"zAccel":2.6951873000000002}
{"date":1445310720,"latitude":-41.328569999999999,"longitude":174.80408,"altitude":-4.3375854,"speed":6.6239999999999997,"pitch":1.3788164000000001,"roll":0.01660764,"yaw":-1.3466457999999999,"xAccel":-4.3466972999999998,"yAccel":0.77228737000000003,"zAccel":0.49327300000000002}
{"date":1445310720,"latitude":-41.328569999999999,"longitude":174.80408,"altitude":-4.3375854,"speed":6.6239999999999997,"pitch":1.3705742000000001,"roll":0.034749974000000003,"yaw":-1.364476,"xAccel":-9.2103330000000003,"yAccel":0.47603524000000003,"zAccel":3.1320313999999998}
{"date":1445310720,"latitude":-41.328569999999999,"longitude":174.80408,"altitude":-4.101013,"speed":2.952,"pitch":1.4027594000000001,"roll":0.065254930000000003,"yaw":-1.4117208999999999,"xAccel":0.63707320000000001,"yAccel":-0.72722476999999996,"zAccel":5.809958}
{"date":1445310720,"latitude":-41.328569999999999,"longitude":174.80408,"altitude":-4.101013,"speed":2.952,"pitch":1.4172349,"roll":0.075641299999999995,"yaw":-1.4306517999999999,"xAccel":-1.0337795999999999,"yAccel":6.0037539999999998,"zAccel":5.9362300000000001}
{"date":1445310720,"latitude":-41.328569999999999,"longitude":174.80408,"altitude":-4.101013,"speed":2.952,"pitch":1.429052,"roll":0.059978429999999999,"yaw":-1.4578154000000001,"xAccel":2.8417819,"yAccel":-2.0384498,"zAccel":-1.7603092}
{"date":1445310720,"latitude":-41.328569999999999,"longitude":174.80408,"altitude":-4.101013,"speed":2.952,"pitch":1.4418962,"roll":0.037243432999999999,"yaw":-1.4822941999999999,"xAccel":-2.7660806,"yAccel":1.3934877999999999,"zAccel":0.64639217000000004}
{"date":1445310720,"latitude":-41.328569999999999,"longitude":174.80408,"altitude":-4.101013,"speed":2.952,"pitch":1.4376928,"roll":0.031423643000000001,"yaw":-1.5045850000000001,"xAccel":9.2667260000000002,"yAccel":-1.8184629999999999,"zAccel":4.0923295}
{"date":1445310720,"latitude":-41.328569999999999,"longitude":174.80408,"altitude":-4.101013,"speed":2.952,"pitch":1.4317378000000001,"roll":0.012030126,"yaw":-1.5211775000000001,"xAccel":6.296367,"yAccel":-3.6931145000000001,"zAccel":1.4170265}
{"date":1445310720,"latitude":-41.328575000000001,"longitude":174.80408,"altitude":-4.0784909999999996,"speed":1.476,"pitch":1.4149398,"roll":-0.016479226,"yaw":-1.5471789,"xAccel":-2.7800503000000001,"yAccel":-0.80590260000000002,"zAccel":-0.99415330000000002}
{"date":1445310720,"latitude":-41.328575000000001,"longitude":174.80408,"altitude":-4.0784909999999996,"speed":1.476,"pitch":1.4155002000000001,"roll":-0.022272790000000001,"yaw":-1.5556812,"xAccel":-2.2972853,"yAccel":-2.6439430000000002,"zAccel":-2.3729167000000002}
{"date":1445310720,"latitude":-41.328575000000001,"longitude":174.80408,"altitude":-4.0784909999999996,"speed":1.476,"pitch":1.3886076999999999,"roll":-0.061635700000000002,"yaw":-1.5521457000000001,"xAccel":-4.1149899999999997,"yAccel":1.4403714999999999,"zAccel":1.8563506999999999}
{"date":1445310720,"latitude":-41.328575000000001,"longitude":174.80408,"altitude":-4.0784909999999996,"speed":1.476,"pitch":1.3778545,"roll":-0.096625100000000005,"yaw":-1.5563245000000001,"xAccel":3.5162760999999998,"yAccel":6.0774460000000001,"zAccel":1.3172747}
{"date":1445310720,"latitude":-41.328575000000001,"longitude":174.80408,"altitude":-4.0784909999999996,"speed":1.476,"pitch":1.3812175,"roll":-0.18046601000000001,"yaw":-1.5652093,"xAccel":-2.8014033,"yAccel":-0.020432051,"zAccel":-3.7939357999999999}
{"date":1445310720,"latitude":-41.328575000000001,"longitude":174.80408,"altitude":-4.0784909999999996,"speed":1.476,"pitch":1.379545,"roll":-0.20737372000000001,"yaw":-1.5502034,"xAccel":22.010425999999999,"yAccel":3.0343393999999999,"zAccel":9.8744610000000002}
{"date":1445310720,"latitude":-41.328575000000001,"longitude":174.80408,"altitude":-4.0784909999999996,"speed":1.476,"pitch":1.4153404000000001,"roll":-0.24321766,"yaw":-1.5048176,"xAccel":6.0274850000000004,"yAccel":6.1540460000000001,"zAccel":4.9738680000000004}
{"date":1445310720,"latitude":-41.328598,"longitude":174.80410000000001,"altitude":-4.4187010000000004,"speed":1.4399999999999999,"pitch":1.4402249,"roll":-0.23424605000000001,"yaw":-1.4563280000000001,"xAccel":6.8244313999999999,"yAccel":-4.4409833000000001,"zAccel":9.6148659999999992}
{"date":1445310720,"latitude":-41.328598,"longitude":174.80410000000001,"altitude":-4.4187010000000004,"speed":1.4399999999999999,"pitch":1.4425896,"roll":-0.196552,"yaw":-1.3390403,"xAccel":2.7367368000000001,"yAccel":1.7679472000000001,"zAccel":8.3056330000000003}
{"date":1445310720,"latitude":-41.328598,"longitude":174.80410000000001,"altitude":-4.4187010000000004,"speed":1.4399999999999999,"pitch":1.4492233999999999,"roll":-0.17282072000000001,"yaw":-1.2772448000000001,"xAccel":-11.730475,"yAccel":-6.4922440000000003,"zAccel":1.6992252000000001}
{"date":1445310720,"latitude":-41.328598,"longitude":174.80410000000001,"altitude":-4.4187010000000004,"speed":1.4399999999999999,"pitch":1.4352411,"roll":-0.086038970000000006,"yaw":-1.1722271,"xAccel":-1.5238887000000001,"yAccel":-10.864862,"zAccel":4.1720457}
{"date":1445310720,"latitude":-41.328598,"longitude":174.80410000000001,"altitude":-4.4187010000000004,"speed":1.4399999999999999,"pitch":1.4206643999999999,"roll":-0.026443468000000001,"yaw":-1.1374819,"xAccel":-0.45745414000000001,"yAccel":3.8729170000000002,"zAccel":5.5485563000000004}
{"date":1445310720,"latitude":-41.328598,"longitude":174.80410000000001,"altitude":-4.4187010000000004,"speed":1.4399999999999999,"pitch":1.4251552999999999,"roll":-0.0031378383000000001,"yaw":-1.1344993000000001,"xAccel":4.2608012999999998,"yAccel":-10.281591000000001,"zAccel":-0.62252859999999999}
{"date":1445310720,"latitude":-41.328598,"longitude":174.80410000000001,"altitude":-4.4187010000000004,"speed":1.4399999999999999,"pitch":1.4229233999999999,"roll":0.05073453,"yaw":-1.1425612999999999,"xAccel":-7.2456180000000003,"yAccel":0.63229482999999997,"zAccel":-3.0125320000000002}
{"date":1445310720,"latitude":-41.328598,"longitude":174.80410000000001,"altitude":-6.8008730000000002,"speed":1.4399999999999999,"pitch":1.4510578999999999,"roll":0.12513716999999999,"yaw":-1.1165054000000001,"xAccel":3.9865148000000001,"yAccel":5.6304489999999996,"zAccel":4.0798560000000004}
{"date":1445310720,"latitude":-41.328598,"longitude":174.80410000000001,"altitude":-6.8008730000000002,"speed":1.4399999999999999,"pitch":1.4685569000000001,"roll":0.15973503999999999,"yaw":-1.1089439000000001,"xAccel":12.190146,"yAccel":5.7965473999999997,"zAccel":1.0062407}
{"date":1445310720,"latitude":-41.328598,"longitude":174.80410000000001,"altitude":-6.8008730000000002,"speed":1.4399999999999999,"pitch":1.4917779,"roll":0.20504729999999999,"yaw":-1.098597,"xAccel":3.0243107999999999,"yAccel":-0.50674564,"zAccel":3.2275442999999999}
{"date":1445310720,"latitude":-41.328598,"longitude":174.80410000000001,"altitude":-6.8008730000000002,"speed":1.4399999999999999,"pitch":1.5034626,"roll":0.22674477000000001,"yaw":-1.082999,"xAccel":-2.7924511000000001,"yAccel":2.3525863,"zAccel":0.41261959999999998}
{"date":1445310720,"latitude":-41.328598,"longitude":174.80410000000001,"altitude":-6.8008730000000002,"speed":1.4399999999999999,"pitch":1.5163186,"roll":0.25364484999999998,"yaw":-1.0764776,"xAccel":-5.3982533999999998,"yAccel":-11.238082,"zAccel":0.75330984999999995}
{"date":1445310720,"latitude":-41.328598,"longitude":174.80410000000001,"altitude":-6.8008730000000002,"speed":1.4399999999999999,"pitch":1.5365576000000001,"roll":0.29748156999999997,"yaw":-1.0681347000000001,"xAccel":-2.5078206000000001,"yAccel":0.1949854,"zAccel":-9.5045420000000007}
{"date":1445310720,"latitude":-41.328598,"longitude":174.80410000000001,"altitude":-6.8008730000000002,"speed":1.4399999999999999,"pitch":1.5541811000000001,"roll":0.30709243000000003,"yaw":-1.0720812,"xAccel":2.7324997999999998,"yAccel":-1.8213269000000001,"zAccel":4.3977284000000001}
{"date":1445310720,"latitude":-41.328598,"longitude":174.80408,"altitude":-6.8650207999999999,"speed":1.1160000000000001,"pitch":1.5821556000000001,"roll":0.3087512,"yaw":-1.1169385999999999,"xAccel":-27.755177,"yAccel":-1.9622462000000001,"zAccel":6.6104516999999996}
{"date":1445310720,"latitude":-41.328598,"longitude":174.80408,"altitude":-6.8650207999999999,"speed":1.1160000000000001,"pitch":1.5478571999999999,"roll":0.25963804000000001,"yaw":-1.1153557999999999,"xAccel":13.125772,"yAccel":4.1530813999999996,"zAccel":6.3051950000000003}
{"date":1445310720,"latitude":-41.328598,"longitude":174.80408,"altitude":-6.8650207999999999,"speed":1.1160000000000001,"pitch":1.5238917999999999,"roll":0.11000048,"yaw":-1.1589430000000001,"xAccel":7.2150610000000004,"yAccel":-1.4125648,"zAccel":4.0264378000000001}
{"date":1445310720,"latitude":-41.328598,"longitude":174.80408,"altitude":-6.8650207999999999,"speed":1.1160000000000001,"pitch":1.512505,"roll":0.074448840000000002,"yaw":-1.1738887,"xAccel":20.775717,"yAccel":-1.7067546,"zAccel":0.23736758999999999}
{"date":1445310720,"latitude":-41.328598,"longitude":174.80408,"altitude":-6.8650207999999999,"speed":1.1160000000000001,"pitch":1.5245248,"roll":0.036945097000000003,"yaw":-1.2012813,"xAccel":-0.48113534000000002,"yAccel":17.581453,"zAccel":4.2948903999999999}
{"date":1445310720,"latitude":-41.328598,"longitude":174.80408,"altitude":-6.3159485000000002,"speed":1.1160000000000001,"pitch":1.5505606999999999,"roll":0.022896538000000001,"yaw":-1.2607455999999999,"xAccel":6.5222420000000003,"yAccel":-10.486743000000001,"zAccel":3.3375203999999998}
{"date":1445310720,"latitude":-41.328598,"longitude":174.80408,"altitude":-6.3159485000000002,"speed":1.1160000000000001,"pitch":1.5717386,"roll":-0.006886685,"yaw":-1.2655627,"xAccel":-0.60779139999999998,"yAccel":3.0447644999999999,"zAccel":12.331777000000001}
{"date":1445310720,"latitude":-41.328598,"longitude":174.80408,"altitude":-6.3159485000000002,"speed":1.1160000000000001,"pitch":1.6160057000000001,"roll":0.0047853733000000004,"yaw":-1.3069421000000001,"xAccel":-15.678996,"yAccel":-11.210194,"zAccel":6.4541579999999996}
{"date":1445310720,"latitude":-41.328598,"longitude":174.80408,"altitude":-6.3159485000000002,"speed":1.1160000000000001,"pitch":1.5750183,"roll":0.0018799487,"yaw":-1.2981708999999999,"xAccel":-1.1196835000000001,"yAccel":5.2922060000000002,"zAccel":4.3192940000000002}
{"date":1445310720,"latitude":-41.328598,"longitude":174.80408,"altitude":-6.3159485000000002,"speed":1.1160000000000001,"pitch":1.5503613000000001,"roll":-0.0057817344000000003,"yaw":-1.2990729999999999,"xAccel":-0.17076052999999999,"yAccel":-6.5182165999999997,"zAccel":4.6781616000000001}
{"date":1445310720,"latitude":-41.328598,"longitude":174.80408,"altitude":-6.3159485000000002,"speed":1.1160000000000001,"pitch":1.5112143,"roll":-0.010126318,"yaw":-1.3352881999999999,"xAccel":-0.63114475999999997,"yAccel":0.95421279999999997,"zAccel":-7.5214610000000004}
{"date":1445310720,"latitude":-41.328600000000002,"longitude":174.80408,"altitude":-7.0649110000000004,"speed":1.1160000000000001,"pitch":1.509185,"roll":-0.016595631999999999,"yaw":-1.3389527000000001,"xAccel":-1.9356711,"yAccel":2.656015,"zAccel":2.2603570999999998}
{"date":1445310720,"latitude":-41.328600000000002,"longitude":174.80408,"altitude":-7.0649110000000004,"speed":1.1160000000000001,"pitch":1.4999307,"roll":-0.015982804999999999,"yaw":-1.2877806000000001,"xAccel":3.0786064,"yAccel":-1.2143542000000001,"zAccel":-1.4553328000000001}
{"date":1445310720,"latitude":-41.328600000000002,"longitude":174.80408,"altitude":-7.0649110000000004,"speed":1.1160000000000001,"pitch":1.4909626,"roll":-0.017254325000000001,"yaw":-1.2807921,"xAccel":0.74199926999999999,"yAccel":5.3764989999999999,"zAccel":-1.8045777000000001}
{"date":1445310720,"latitude":-41.328600000000002,"longitude":174.80408,"altitude":-7.0649110000000004,"speed":1.1160000000000001,"pitch":1.5102053,"roll":0.0068288352000000002,"yaw":-1.2690619999999999,"xAccel":-4.1877275000000003,"yAccel":10.820328999999999,"zAccel":3.0298257}
{"date":1445310720,"latitude":-41.328600000000002,"longitude":174.80408,"altitude":-7.0649110000000004,"speed":1.1160000000000001,"pitch":1.4917336999999999,"roll":0.022695927000000001,"yaw":-1.2366519,"xAccel":-13.401379,"yAccel":-22.443463999999999,"zAccel":5.4478150000000003}
{"date":1445310720,"latitude":-41.328600000000002,"longitude":174.80408,"altitude":-7.0649110000000004,"speed":1.1160000000000001,"pitch":1.3862829000000001,"roll":0.055048734000000002,"yaw":-1.169737,"xAccel":-0.79673444999999998,"yAccel":0.81021005000000001,"zAccel":-2.3766512999999998}
{"date":1445310720,"latitude":-41.328600000000002,"longitude":174.80408,"altitude":-7.0649110000000004,"speed":1.1160000000000001,"pitch":1.3900299,"roll":0.022831295000000001,"yaw":-1.1362064999999999,"xAccel":6.4501059999999999,"yAccel":-2.8391004,"zAccel":1.6689695}
{"date":1445310720,"latitude":-41.328600000000002,"longitude":174.80408,"altitude":-7.8071593999999997,"speed":1.1880001,"pitch":1.5078104000000001,"roll":0.038643718000000001,"yaw":-1.0793253,"xAccel":-16.331596000000001,"yAccel":-5.2578519999999997,"zAccel":48.104796999999998}
{"date":1445310720,"latitude":-41.328600000000002,"longitude":174.80408,"altitude":-7.8071593999999997,"speed":1.1880001,"pitch":1.547086,"roll":0.110329196,"yaw":-1.0369397,"xAccel":4.3333044000000003,"yAccel":-9.9438080000000006,"zAccel":0.20555108999999999}
{"date":1445310720,"latitude":-41.328600000000002,"longitude":174.80408,"altitude":-7.8071593999999997,"speed":1.1880001,"pitch":1.5444871,"roll":0.2312168,"yaw":-0.99042695999999997,"xAccel":-8.1216910000000002,"yAccel":-1.7655988,"zAccel":-5.0447445000000002}
{"date":1445310720,"latitude":-41.328606000000001,"longitude":174.80408,"altitude":-7.2892760000000001,"speed":1.1880001,"pitch":1.5296938,"roll":0.23533137000000001,"yaw":-0.92183906000000004,"xAccel":-2.3655447999999999,"yAccel":-0.58316869999999998,"zAccel":-0.13383289000000001}
{"date":1445310720,"latitude":-41.328606000000001,"longitude":174.80408,"altitude":-7.2892760000000001,"speed":1.1880001,"pitch":1.5325694999999999,"roll":0.21102032000000001,"yaw":-0.90079719999999996,"xAccel":10.514860000000001,"yAccel":5.3748259999999997,"zAccel":-5.1346790000000002}
{"date":1445310720,"latitude":-41.328606000000001,"longitude":174.80408,"altitude":-7.2892760000000001,"speed":1.1880001,"pitch":1.4921648999999999,"roll":0.10719793,"yaw":-0.8642379,"xAccel":10.032465,"yAccel":7.106744,"zAccel":4.9830116999999996}
{"date":1445310720,"latitude":-41.328606000000001,"longitude":174.80408,"altitude":-7.2892760000000001,"speed":1.1880001,"pitch":1.4111094,"roll":-0.020384804999999999,"yaw":-0.83021164000000003,"xAccel":-5.6485685999999999,"yAccel":4.8427595999999999,"zAccel":9.2519340000000003}
{"date":1445310720,"latitude":-41.328606000000001,"longitude":174.80408,"altitude":-7.9345702999999999,"speed":1.0800000000000001,"pitch":1.3682356,"roll":-0.077976619999999996,"yaw":-0.92944499999999997,"xAccel":8.2075519999999997,"yAccel":1.5396464999999999,"zAccel":6.4630650000000003}
{"date":1445310720,"latitude":-41.328606000000001,"longitude":174.80408,"altitude":-7.9345702999999999,"speed":1.0800000000000001,"pitch":1.4942882,"roll":-0.0023442494999999998,"yaw":-0.74992049999999999,"xAccel":4.7155265999999996,"yAccel":-1.9560135999999999,"zAccel":-6.6499785999999999}
{"date":1445310720,"latitude":-41.328606000000001,"longitude":174.80408,"altitude":-7.9345702999999999,"speed":1.0800000000000001,"pitch":1.5493553,"roll":0.021070564,"yaw":-0.60985153999999997,"xAccel":-3.3191250000000001,"yAccel":-0.71351260000000005,"zAccel":0.16365832}
{"date":1445310720,"latitude":-41.328606000000001,"longitude":174.80405999999999,"altitude":-7.8114623999999999,"speed":1.0800000000000001,"pitch":1.5355581,"roll":0.033575729999999998,"yaw":-0.50853749999999998,"xAccel":1.2191858,"yAccel":-0.54260063000000003,"zAccel":-11.696764}
{"date":1445310720,"latitude":-41.328606000000001,"longitude":174.80405999999999,"altitude":-7.8114623999999999,"speed":1.0800000000000001,"pitch":1.3988438000000001,"roll":0.095547049999999994,"yaw":-0.45202284999999998,"xAccel":3.9844487000000002,"yAccel":4.5608510000000004,"zAccel":6.3926879999999997}
{"date":1445310720,"latitude":-41.328606000000001,"longitude":174.80405999999999,"altitude":-7.8114623999999999,"speed":1.0800000000000001,"pitch":1.3861637,"roll":0.17335376,"yaw":-0.34557890000000002,"xAccel":-2.4168463,"yAccel":4.457954,"zAccel":3.1385453000000001}
{"date":1445310720,"latitude":-41.328606000000001,"longitude":174.80405999999999,"altitude":-7.8114623999999999,"speed":1.0800000000000001,"pitch":1.3904898000000001,"roll":0.20054930000000001,"yaw":-0.36053457999999999,"xAccel":-2.3006088999999998,"yAccel":1.9353575000000001,"zAccel":-2.5758245}
{"date":1445310720,"latitude":-41.328609999999998,"longitude":174.80405999999999,"altitude":-7.7367860000000004,"speed":1.1519999999999999,"pitch":1.3711047999999999,"roll":0.13931035,"yaw":-0.41726950000000002,"xAccel":4.2043150000000002,"yAccel":-2.5659782999999998,"zAccel":4.2309036000000004}
{"date":1445310720,"latitude":-41.328609999999998,"longitude":174.80405999999999,"altitude":-7.7367860000000004,"speed":1.1519999999999999,"pitch":1.3670602000000001,"roll":0.095544069999999995,"yaw":-0.41424223999999998,"xAccel":5.7541719999999996,"yAccel":2.2473640000000001,"zAccel":0.96985940000000004}
{"date":1445310720,"latitude":-41.328609999999998,"longitude":174.80405999999999,"altitude":-9.6612849999999995,"speed":1.008,"pitch":1.3050047,"roll":0.12517412,"yaw":-0.44744685000000001,"xAccel":-0.55083360000000003,"yAccel":-0.32662587999999998,"zAccel":-0.60403806000000004}
{"date":1445310720,"latitude":-41.328609999999998,"longitude":174.80405999999999,"altitude":-9.6612849999999995,"speed":1.008,"pitch":1.2873300000000001,"roll":0.3069134,"yaw":-0.4345425,"xAccel":-8.9132879999999997,"yAccel":-9.7284950000000006,"zAccel":1.5473504}
{"date":1445310720,"latitude":-41.328609999999998,"longitude":174.80405999999999,"altitude":-9.6612849999999995,"speed":1.008,"pitch":1.3009926999999999,"roll":0.29528330000000003,"yaw":-0.44317417999999997,"xAccel":-26.501937999999999,"yAccel":9.6028409999999997,"zAccel":-1.4008860000000001}
{"date":1445310720,"latitude":-41.328609999999998,"longitude":174.80405999999999,"altitude":-9.8874510000000004,"speed":0,"pitch":1.3202825,"roll":0.14305007,"yaw":-0.52444714000000003,"xAccel":-0.92012154999999995,"yAccel":-3.0490111999999998,"zAccel":-2.3232244999999998}
{"date":1445310720,"latitude":-41.328609999999998,"longitude":174.80405999999999,"altitude":-9.8874510000000004,"speed":0,"pitch":1.3310035,"roll":0.098877005000000004,"yaw":-0.62276739999999997,"xAccel":5.1139070000000002,"yAccel":0.36451823,"zAccel":7.50143}
{"date":1445310720,"latitude":-41.328609999999998,"longitude":174.80405999999999,"altitude":-9.8874510000000004,"speed":0,"pitch":1.3088002999999999,"roll":0.076300814999999994,"yaw":-0.64676635999999998,"xAccel":1.0156244999999999,"yAccel":0.40345764000000001,"zAccel":3.5873108}
{"date":1445310720,"latitude":-41.328609999999998,"longitude":174.80405999999999,"altitude":-9.8874510000000004,"speed":0,"pitch":1.3064628,"roll":0.060208275999999998,"yaw":-0.66227484000000003,"xAccel":-0.14278268999999999,"yAccel":-0.021206038,"zAccel":0.52901359999999997}
{"date":1445310720,"latitude":-41.328609999999998,"longitude":174.80405999999999,"altitude":-9.3974299999999999,"speed":0,"pitch":1.3162193,"roll":0.061561096000000003,"yaw":-0.68528339999999999,"xAccel":-0.83630335,"yAccel":0.21000057,"zAccel":-1.6572028000000001}
{"date":1445310720,"latitude":-41.328609999999998,"longitude":174.80405999999999,"altitude":-9.3974299999999999,"speed":0,"pitch":1.3219403999999999,"roll":0.060758550000000001,"yaw":-0.70938087000000005,"xAccel":1.7981304,"yAccel":-3.3554846999999999,"zAccel":1.8914465}
{"date":1445310720,"latitude":-41.328609999999998,"longitude":174.80405999999999,"altitude":-9.3974299999999999,"speed":0,"pitch":1.3229039,"roll":0.054995163999999999,"yaw":-0.73624699999999998,"xAccel":-0.66780609999999996,"yAccel":0.15506506,"zAccel":0.54673669999999996}
{"date":1445310720,"latitude":-41.328609999999998,"longitude":174.80405999999999,"altitude":-9.3974299999999999,"speed":0,"pitch":1.3218057999999999,"roll":0.0446048,"yaw":-0.77086149999999998,"xAccel":-2.3952469999999999,"yAccel":0.26368096000000002,"zAccel":-2.5569052999999999}
