{"yaw":-0.0104443526277853,"roll":0.073870096963853396,"speed":-3.6000000000000001,"altitude":14.005615234375,"xAccel":0.025556972832418999,"longitude":174.09503477621499,"yAccel":-5.2194207906722996,"latitude":-39.051846277005801,"date":1445626732.3306899,"zAccel":5.3512852638959902,"pitch":2.8246506508079099}
{"yaw":0.026428430438404801,"roll":0.060976515615043803,"speed":-3.6000000000000001,"altitude":14.005615234375,"xAccel":-4.1798692196607599,"longitude":174.09503477621499,"yAccel":16.137571632862102,"latitude":-39.051846277005801,"date":1445626732.43064,"zAccel":5.1153704524040204,"pitch":2.7807891917318601}
{"yaw":-0.029470894416509501,"roll":0.050215111115897999,"speed":-3.6000000000000001,"altitude":14.005615234375,"xAccel":0.98192542791366599,"longitude":174.09503477621499,"yAccel":11.698374152183501,"latitude":-39.051846277005801,"date":1445626732.5308001,"zAccel":4.7409765422344199,"pitch":2.82679980272788}
{"yaw":-0.076915948118315702,"roll":0.102071862176213,"speed":-3.6000000000000001,"altitude":14.005615234375,"xAccel":10.2886535227299,"longitude":174.09503477621499,"yAccel":5.9133987873792604,"latitude":-39.051846277005801,"date":1445626732.6300099,"zAccel":2.1792860701680201,"pitch":2.7464950255451801}
{"yaw":-0.077153531986868001,"roll":0.085077742668356299,"speed":-3.6000000000000001,"altitude":14.005615234375,"xAccel":4.1914843022823298,"longitude":174.09503477621499,"yAccel":5.9212762862443897,"latitude":-39.051846277005801,"date":1445626732.73085,"zAccel":0.632539438083768,"pitch":2.69287171613214}
{"yaw":-0.0586837769703362,"roll":0.063728983638555503,"speed":-3.6000000000000001,"altitude":14.005615234375,"xAccel":-3.5282652825117098,"longitude":174.09503477621499,"yAccel":10.308122634887701,"latitude":-39.051846277005801,"date":1445626732.8308699,"zAccel":-2.3372497409582098,"pitch":2.6501676038180801}
{"yaw":-0.075807870095218097,"roll":0.048612216888427602,"speed":-3.6000000000000001,"altitude":14.005615234375,"xAccel":8.7518244981765694,"longitude":174.09503477621499,"yAccel":-1.6366198658943201,"latitude":-39.051846277005801,"date":1445626732.93063,"zAccel":24.906955659389499,"pitch":2.5996534326254399}
{"yaw":-0.091902690064285697,"roll":0.0378249307183436,"speed":-3.6000000000000001,"altitude":14.005615234375,"xAccel":9.0641841292381304,"longitude":174.09503477621499,"yAccel":5.0261739641428003,"latitude":-39.051846277005801,"date":1445626733.03073,"zAccel":1.9730489701032601,"pitch":2.62918261519745}
{"yaw":-0.099786605428049097,"roll":0.056221397302727003,"speed":-3.6000000000000001,"altitude":14.005615234375,"xAccel":2.2057872265577299,"longitude":174.09503477621499,"yAccel":4.9191832542419398,"latitude":-39.051846277005801,"date":1445626733.13064,"zAccel":2.5646774098277101,"pitch":2.6362760516306798}
{"yaw":-0.11475016434832799,"roll":0.104184235497373,"speed":-3.6000000000000001,"altitude":14.005615234375,"xAccel":4.9644056707620603,"longitude":174.09503477621499,"yAccel":9.1967746615409904,"latitude":-39.051846277005801,"date":1445626733.22998,"zAccel":0.77012926340103105,"pitch":2.64057960121032}
{"yaw":-0.117282326634496,"roll":0.131480643626882,"speed":-3.6000000000000001,"altitude":14.005615234375,"xAccel":-3.08088604360819,"longitude":174.09503477621499,"yAccel":8.0555438995361293,"latitude":-39.051846277005801,"date":1445626733.3306301,"zAccel":-3.8672108203172701,"pitch":2.6580785449228101}
{"yaw":-0.132671435573125,"roll":0.15929710376459999,"speed":-3.6000000000000001,"altitude":14.005615234375,"xAccel":2.5643901899457,"longitude":174.09503477621499,"yAccel":8.9983217418193799,"latitude":-39.051846277005801,"date":1445626733.43067,"zAccel":-14.4910544157028,"pitch":2.6942143489040702}
{"yaw":-0.102279060271269,"roll":0.16637833698947499,"speed":-3.6000000000000001,"altitude":14.005615234375,"xAccel":-3.3149193972349198,"longitude":174.09503477621499,"yAccel":3.7284571677446401,"latitude":-39.051846277005801,"date":1445626733.52965,"zAccel":-5.2653610706329301,"pitch":2.7164776533091901}
{"yaw":-0.086281500630011498,"roll":0.155305075875179,"speed":-3.6000000000000001,"altitude":14.005615234375,"xAccel":3.8913078606128702,"longitude":174.09503477621499,"yAccel":1.7690850421786299,"latitude":-39.051846277005801,"date":1445626733.6306601,"zAccel":-0.92728920280933402,"pitch":2.7227421203028901}
{"yaw":-0.083010818165014905,"roll":0.15703856270399599,"speed":-3.6000000000000001,"altitude":14.005615234375,"xAccel":-1.2215718626976,"longitude":174.09503477621499,"yAccel":-2.52495426684618,"latitude":-39.051846277005801,"date":1445626733.73069,"zAccel":0.042870605830103201,"pitch":2.7151694391640402}
{"yaw":-0.101119645599591,"roll":0.14214477033341499,"speed":-3.6000000000000001,"altitude":14.005615234375,"xAccel":-6.1427906155586198,"longitude":174.09503477621499,"yAccel":-5.0429008901119197,"latitude":-39.051846277005801,"date":1445626733.8307199,"zAccel":-0.54413890466093995,"pitch":2.7109722781248702}
{"yaw":-0.17384222973496899,"roll":0.16242264712887,"speed":-3.6000000000000001,"altitude":14.005615234375,"xAccel":28.272688388824498,"longitude":174.09503477621499,"yAccel":4.0529735386371604,"latitude":-39.051846277005801,"date":1445626733.93065,"zAccel":27.906647324562101,"pitch":2.6856178551505798}
{"yaw":-0.19544527010598201,"roll":-0.098648339078273903,"speed":-3.6000000000000001,"altitude":14.005615234375,"xAccel":-77.027183771133394,"longitude":174.09503477621499,"yAccel":14.4506126642227,"latitude":-39.051846277005801,"date":1445626734.0306101,"zAccel":-100.731921195984,"pitch":2.5981969578525899}
{"yaw":-0.37353498918692901,"roll":-0.0371907910148759,"speed":-3.6000000000000001,"altitude":14.005615234375,"xAccel":-21.268880367279099,"longitude":174.09503477621499,"yAccel":-10.045607388019601,"latitude":-39.051846277005801,"date":1445626734.13028,"zAccel":-9.1763503849506396,"pitch":2.5516836479237002}
{"yaw":-0.52874968274345602,"roll":-0.083266426918726905,"speed":-3.6000000000000001,"altitude":14.005615234375,"xAccel":8.7529830634593999,"longitude":174.09503477621499,"yAccel":14.9955257773399,"latitude":-39.051846277005801,"date":1445626734.23067,"zAccel":-7.9536065459251404,"pitch":2.6670199937486898}
{"yaw":-0.64584292923310105,"roll":-0.028566107721547,"speed":-3.6000000000000001,"altitude":14.005615234375,"xAccel":-6.9974578917026502,"longitude":174.09503477621499,"yAccel":-45.008945465087898,"latitude":-39.051846277005801,"date":1445626734.4312899,"zAccel":-23.650489747524301,"pitch":2.8233785409901402}
{"yaw":-0.54156363828600296,"roll":0.0597834878070772,"speed":-3.6000000000000001,"altitude":14.005615234375,"xAccel":0.60369451530277696,"longitude":174.09503477621499,"yAccel":19.481013715267199,"latitude":-39.051846277005801,"date":1445626734.54283,"zAccel":-16.201239824295001,"pitch":2.9941739799523099}
{"yaw":-0.358676333961095,"roll":0.094457996052689203,"speed":2.0160000085830698,"altitude":-8.74664306640625,"xAccel":8.3224453032016807,"longitude":174.09839225017799,"yAccel":36.447432637214703,"latitude":-39.045551139897697,"date":1445626734.9121799,"zAccel":4.2472571134567296,"pitch":3.0478652142438101}
{"yaw":-0.074653724482004094,"roll":0.078732092620081406,"speed":2.0160000085830698,"altitude":-8.74664306640625,"xAccel":-22.2344100475311,"longitude":174.09839225017799,"yAccel":-33.045828342437702,"latitude":-39.045551139897697,"date":1445626735.2811799,"zAccel":-4.2785059660673097,"pitch":-3.1292874660599801}
{"yaw":-0.199380633965654,"roll":0.061108188904568102,"speed":0.61200000643730201,"altitude":-1.9671630859375,"xAccel":5.4218966513872102,"longitude":174.09841035508899,"yAccel":5.60355372726917,"latitude":-39.045577668621199,"date":1445626736.3691001,"zAccel":11.271110922098201,"pitch":3.05188338732418}
{"yaw":-0.224488446166143,"roll":0.060212218942667303,"speed":0.61200000643730201,"altitude":-1.9671630859375,"xAccel":-18.134027719497698,"longitude":174.09841035508899,"yAccel":-4.8599120229482704,"latitude":-39.045577668621199,"date":1445626738.8480501,"zAccel":12.893477082252501,"pitch":3.0574634833090202}
{"yaw":0.079260757560198999,"roll":-0.018724597552566499,"speed":0,"altitude":-6.514892578125,"xAccel":-6.45761638879776,"longitude":174.09841035508899,"yAccel":-5.6830678135156596,"latitude":-39.045577668621199,"date":1445626739.5112801,"zAccel":5.0383381545543697,"pitch":2.7323602702889902}
{"yaw":0.11762540911201499,"roll":-0.051880985525546902,"speed":0,"altitude":-6.514892578125,"xAccel":-10.648418217897399,"longitude":174.09841035508899,"yAccel":-2.1387737244367599,"latitude":-39.045577668621199,"date":1445626739.6769199,"zAccel":1.6350567340850799,"pitch":2.70938867513392}
{"yaw":0.111526738367186,"roll":-0.040068741071722397,"speed":0,"altitude":-6.514892578125,"xAccel":-14.2475008964539,"longitude":174.09841035508899,"yAccel":-1.47002348676324,"latitude":-39.045577668621199,"date":1445626739.8076701,"zAccel":4.1591115295887002,"pitch":2.7151432568361198}
{"yaw":0.105951853438773,"roll":-0.065188734164216999,"speed":0,"altitude":-6.514892578125,"xAccel":-8.8992059230804408,"longitude":174.09841035508899,"yAccel":-3.1461812555789899,"latitude":-39.045577668621199,"date":1445626740.0327201,"zAccel":-4.4099118560552597,"pitch":2.7048007490243}
{"yaw":0.075417754999141204,"roll":-0.052531747587135899,"speed":0,"altitude":-7.3973388671875,"xAccel":-0.067348353331908598,"longitude":174.09841035508899,"yAccel":2.7675926685333301,"latitude":-39.045577668621199,"date":1445626740.1954701,"zAccel":7.2585128247737902,"pitch":2.71020685511396}
{"yaw":0.029236571374016401,"roll":-0.031999591238660897,"speed":0,"altitude":-7.3973388671875,"xAccel":-8.4392808377742803,"longitude":174.09841035508899,"yAccel":3.0386967584490798,"latitude":-39.045577668621199,"date":1445626740.39818,"zAccel":18.597522377967799,"pitch":2.7314169789882898}
{"yaw":-0.036171708160907298,"roll":0.033606277853514298,"speed":0,"altitude":-7.3973388671875,"xAccel":-10.356130450964001,"longitude":174.09841035508899,"yAccel":2.9752295464277299,"latitude":-39.045577668621199,"date":1445626740.66079,"zAccel":1.5729170292615899,"pitch":2.82387486156862}
{"yaw":-0.0278666088978116,"roll":-0.010257589882826599,"speed":0,"altitude":-7.3973388671875,"xAccel":-3.8440395146608402,"longitude":174.09841035508899,"yAccel":-2.7820320799946798,"latitude":-39.045577668621199,"date":1445626740.8633001,"zAccel":-0.65624793060123898,"pitch":2.7742234017593499}
{"yaw":-0.0217630947822894,"roll":-0.016373472697915101,"speed":0,"altitude":-7.3973388671875,"xAccel":-7.0632994174957302,"longitude":174.09841035508899,"yAccel":-5.3933590650558498,"latitude":-39.045577668621199,"date":1445626740.91132,"zAccel":4.6457566320896104,"pitch":2.7673045124703299}
{"yaw":-0.047268802531156402,"roll":-0.017747856043785499,"speed":0,"altitude":-7.3973388671875,"xAccel":-0.80575933679938305,"longitude":174.09841035508899,"yAccel":-2.4809185415506398,"latitude":-39.045577668621199,"date":1445626741.01141,"zAccel":8.8816188275814092,"pitch":2.75861165344535}
{"yaw":-0.078713656634677595,"roll":0.0060140889560298203,"speed":0,"altitude":-6.82647705078125,"xAccel":-1.9773300737142601,"longitude":174.09841035508899,"yAccel":-4.7110050916671797,"latitude":-39.045577668621199,"date":1445626741.11235,"zAccel":11.998667567968401,"pitch":2.74909988838776}
{"yaw":-0.090701137749954697,"roll":0.040952747781663697,"speed":0,"altitude":-6.82647705078125,"xAccel":0.73109306395053897,"longitude":174.09841035508899,"yAccel":-0.55303382687270597,"latitude":-39.045577668621199,"date":1445626741.2125599,"zAccel":-3.4593228250741999,"pitch":2.78052728325045}
{"yaw":-0.080599712130905499,"roll":-0.0085980422251627307,"speed":0,"altitude":-6.82647705078125,"xAccel":-0.73772333562374104,"longitude":174.09841035508899,"yAccel":-0.28727492317557302,"latitude":-39.045577668621199,"date":1445626741.4112699,"zAccel":-1.1581829749047801,"pitch":2.7719399608636999}
{"yaw":-0.087127042819044903,"roll":-0.043075835093170499,"speed":0,"altitude":-6.82647705078125,"xAccel":2.36641690135002,"longitude":174.09841035508899,"yAccel":-1.96417905390263,"latitude":-39.045577668621199,"date":1445626741.6112001,"zAccel":-7.9906754195690199,"pitch":2.7636038539177599}
{"yaw":-0.088148916646830902,"roll":-0.039524097550886102,"speed":0,"altitude":-6.82647705078125,"xAccel":-2.9961805790662801,"longitude":174.09841035508899,"yAccel":-2.4847012013196901,"latitude":-39.045577668621199,"date":1445626741.7105501,"zAccel":-3.2733969390392299,"pitch":2.7710634632100901}
{"yaw":-0.105914159768092,"roll":-0.035728063234694803,"speed":0,"altitude":-6.82647705078125,"xAccel":0.059545534895732999,"longitude":174.09841035508899,"yAccel":1.56287644058466,"latitude":-39.045577668621199,"date":1445626741.81106,"zAccel":2.6354027912020701,"pitch":2.7803959566382099}
{"yaw":-0.13544432579149801,"roll":-0.051850649238710002,"speed":0,"altitude":-6.82647705078125,"xAccel":-6.6262230277061498,"longitude":174.09841035508899,"yAccel":1.7246806994080499,"latitude":-39.045577668621199,"date":1445626741.9101601,"zAccel":11.060302704572701,"pitch":2.7842904455637001}
{"yaw":-0.13691493728613399,"roll":-0.069413558709585502,"speed":0,"altitude":-6.82647705078125,"xAccel":9.7603842616081202,"longitude":174.09841035508899,"yAccel":10.526985675096499,"latitude":-39.045577668621199,"date":1445626742.0134499,"zAccel":-4.6367473900318101,"pitch":2.7815940021095802}
{"yaw":-0.073855772708765005,"roll":-0.075878675169417903,"speed":0.61200000643730201,"altitude":-6.552001953125,"xAccel":3.43015380203724,"longitude":174.098458886309,"yAccel":-0.52534965798258804,"latitude":-39.045552481002197,"date":1445626742.1126399,"zAccel":-5.6044511497020704,"pitch":2.7801453230660198}
{"yaw":-0.0060431339190688002,"roll":-0.082106033790980901,"speed":0.61200000643730201,"altitude":-6.552001953125,"xAccel":-2.1680561825633,"longitude":174.098458886309,"yAccel":-12.102232873439799,"latitude":-39.045552481002197,"date":1445626742.2102001,"zAccel":-4.0537133812904402,"pitch":2.7772734363147298}
{"yaw":-0.048521203438237397,"roll":-0.038327442354844303,"speed":0.61200000643730201,"altitude":-6.552001953125,"xAccel":-1.7657658085226999,"longitude":174.098458886309,"yAccel":-4.3333481997251502,"latitude":-39.045552481002197,"date":1445626742.31113,"zAccel":-1.7628001049161,"pitch":2.7602553911770298}
{"yaw":-0.079115416029991906,"roll":-0.040317794418303098,"speed":0.61200000643730201,"altitude":-6.552001953125,"xAccel":-4.54338267445564,"longitude":174.098458886309,"yAccel":-1.8035870045423501,"latitude":-39.045552481002197,"date":1445626742.41101,"zAccel":1.6528300940990399,"pitch":2.7266257122928801}
{"yaw":-0.113945409529788,"roll":-0.069652165612974506,"speed":0.61200000643730201,"altitude":-6.552001953125,"xAccel":-0.82555282860994295,"longitude":174.098458886309,"yAccel":-1.9803769886493701,"latitude":-39.045552481002197,"date":1445626742.51121,"zAccel":2.0485436543822302,"pitch":2.7307048535006402}
{"yaw":-0.11965062404549601,"roll":-0.077950891953772194,"speed":0.61200000643730201,"altitude":-6.552001953125,"xAccel":-2.9715234413743001,"longitude":174.098458886309,"yAccel":-5.4677508771419499,"latitude":-39.045552481002197,"date":1445626742.6111,"zAccel":-3.9422035217285201,"pitch":2.73834625347004}
{"yaw":-0.13327018488255499,"roll":-0.16605637582099,"speed":0.61200000643730201,"altitude":-6.552001953125,"xAccel":-7.6884843409061396,"longitude":174.098458886309,"yAccel":6.9508410990238199,"latitude":-39.045552481002197,"date":1445626742.71135,"zAccel":11.6551719605923,"pitch":2.64108359992583}
{"yaw":-0.25645092299144601,"roll":-0.28096964530110202,"speed":0.61200000643730201,"altitude":-6.552001953125,"xAccel":7.5022779405116999,"longitude":174.098458886309,"yAccel":23.4880521893501,"latitude":-39.045552481002197,"date":1445626742.81196,"zAccel":24.0893289446831,"pitch":2.51434235345697}
{"yaw":-0.38181467292590299,"roll":-0.15099862571545999,"speed":0.61200000643730201,"altitude":-6.552001953125,"xAccel":-12.466863542795201,"longitude":174.098458886309,"yAccel":-21.7818066477776,"latitude":-39.045552481002197,"date":1445626743.01109,"zAccel":-18.156522512435899,"pitch":2.6217692901640999}
{"yaw":-0.34110948935956997,"roll":-0.174391049137476,"speed":0,"altitude":-6.24560546875,"xAccel":-18.7851712107658,"longitude":174.098458886309,"yAccel":18.349862098693801,"latitude":-39.045552481002197,"date":1445626743.2518301,"zAccel":34.522399306297302,"pitch":2.6615991873544802}
{"yaw":-0.30571820967329599,"roll":-0.22336893002192401,"speed":0,"altitude":-6.24560546875,"xAccel":-2.5379633530974401,"longitude":174.098458886309,"yAccel":-40.126264095306396,"latitude":-39.045552481002197,"date":1445626743.5671899,"zAccel":-42.7463829517365,"pitch":2.70668911106474}
{"yaw":-0.363161342331006,"roll":-0.0422790646397068,"speed":0,"altitude":-6.24560546875,"xAccel":7.7209845185279802,"longitude":174.098458886309,"yAccel":-11.290521174669299,"latitude":-39.045552481002197,"date":1445626744.28635,"zAccel":-8.6535565555095708,"pitch":2.46126088229994}
{"yaw":-0.343120136527854,"roll":-0.032587567009405002,"speed":0,"altitude":-6.74127197265625,"xAccel":-4.4117443263530696,"longitude":174.098458886309,"yAccel":11.4149361848831,"latitude":-39.045552481002197,"date":1445626744.5516601,"zAccel":-48.380580544471698,"pitch":2.7418160513459502}
{"yaw":-0.28412535999800698,"roll":-0.230925532215942,"speed":0,"altitude":-5.60809326171875,"xAccel":19.137898087501501,"longitude":174.098458886309,"yAccel":106.63901567459099,"latitude":-39.045552481002197,"date":1445626745.3002501,"zAccel":10.9550967812538,"pitch":1.7467844307486899}
{"yaw":0.060113694278215203,"roll":-0.32978105968836902,"speed":0,"altitude":-5.60809326171875,"xAccel":-55.612045526504502,"longitude":174.098458886309,"yAccel":68.966966867446899,"latitude":-39.045552481002197,"date":1445626745.42501,"zAccel":-20.186436176299999,"pitch":2.0599868345346}
{"yaw":-0.23246477330912699,"roll":-0.16770860230356199,"speed":0,"altitude":-5.60809326171875,"xAccel":-30.1750212907791,"longitude":174.098458886309,"yAccel":41.252180933952303,"latitude":-39.045552481002197,"date":1445626745.5289299,"zAccel":62.040781974792502,"pitch":2.32166226790488}
{"yaw":-0.22481086829855501,"roll":-0.0305808022189487,"speed":0,"altitude":-5.60809326171875,"xAccel":5.5041030049324,"longitude":174.098458886309,"yAccel":-44.222456216812098,"latitude":-39.045552481002197,"date":1445626745.68504,"zAccel":53.270077705383301,"pitch":2.3069910973297998}
{"yaw":-0.36151661939167001,"roll":-0.21862223403650599,"speed":0,"altitude":-5.60809326171875,"xAccel":-11.0119111835957,"longitude":174.098458886309,"yAccel":20.988924801349601,"latitude":-39.045552481002197,"date":1445626746.09971,"zAccel":50.734746456146198,"pitch":2.2271750471973299}
{"yaw":-0.52690482797574001,"roll":0.00039045585837955201,"speed":0,"altitude":-5.6175537109375,"xAccel":-18.157060444355,"longitude":174.098458886309,"yAccel":19.5706158876419,"latitude":-39.045552481002197,"date":1445626746.3083,"zAccel":-13.4040176868439,"pitch":2.2370953527489799}
{"yaw":-0.62528152333527998,"roll":0.13489968800001501,"speed":0,"altitude":-5.6175537109375,"xAccel":-33.868414163589499,"longitude":174.098458886309,"yAccel":-120.88485956192,"latitude":-39.045552481002197,"date":1445626746.41208,"zAccel":-8.4531404078006709,"pitch":2.3519616100082801}
{"yaw":-0.59527958230892397,"roll":0.16340465648948699,"speed":0,"altitude":-5.6175537109375,"xAccel":-12.5911027193069,"longitude":174.098458886309,"yAccel":-5.1938463002443296,"latitude":-39.045552481002197,"date":1445626746.57675,"zAccel":-69.460535049438505,"pitch":2.4258557427400498}
{"yaw":-0.45991765074387703,"roll":0.28699746629410799,"speed":0,"altitude":-5.6175537109375,"xAccel":0.90869646519422498,"longitude":174.098458886309,"yAccel":-17.378787696361499,"latitude":-39.045552481002197,"date":1445626746.7823901,"zAccel":12.716783583164201,"pitch":2.4682334235304899}
{"yaw":-0.43472113484934,"roll":0.37255545632569798,"speed":0,"altitude":-5.68182373046875,"xAccel":-7.9393118619918797,"longitude":174.098458886309,"yAccel":21.349948644638101,"latitude":-39.045552481002197,"date":1445626747.20292,"zAccel":-17.541041970253001,"pitch":2.5631315530963299}
{"yaw":-0.65417115054433195,"roll":0.381474323147033,"speed":0,"altitude":-5.68182373046875,"xAccel":32.199624180793798,"longitude":174.098458886309,"yAccel":-8.8535726070404106,"latitude":-39.045552481002197,"date":1445626747.32149,"zAccel":60.110944509506197,"pitch":2.4023466754134501}
{"yaw":-0.62464192799991902,"roll":0.37408377591879399,"speed":0,"altitude":-5.68182373046875,"xAccel":-0.692514888942242,"longitude":174.098458886309,"yAccel":35.620987415313699,"latitude":-39.045552481002197,"date":1445626747.4783299,"zAccel":-1.0531867854297201,"pitch":2.43848306260452}
{"yaw":-0.49613478908306902,"roll":0.31658576440078101,"speed":0,"altitude":-5.68182373046875,"xAccel":-16.1485016345978,"longitude":174.098458886309,"yAccel":4.3494887650012997,"latitude":-39.045552481002197,"date":1445626747.6166101,"zAccel":9.8838865756988508,"pitch":2.5105377339174599}
{"yaw":-0.45479105544315701,"roll":0.19072505383933799,"speed":0,"altitude":-5.68182373046875,"xAccel":-4.6879343688487998,"longitude":174.098458886309,"yAccel":-6.1085242778062803,"latitude":-39.045552481002197,"date":1445626747.7891099,"zAccel":8.4583431482315099,"pitch":2.4784591321742702}
{"yaw":-0.37858637023959901,"roll":0.219557211602951,"speed":0,"altitude":-5.68182373046875,"xAccel":-15.296056866645801,"longitude":174.098458886309,"yAccel":-53.780937194824197,"latitude":-39.045552481002197,"date":1445626747.9453299,"zAccel":9.7544290125370008,"pitch":2.3941612872276701}
{"yaw":-0.0419225159836841,"roll":0.27867992062332703,"speed":0,"altitude":-4.7733154296875,"xAccel":-11.3279961049557,"longitude":174.098458886309,"yAccel":-12.696938216686201,"latitude":-39.045552481002197,"date":1445626748.3843501,"zAccel":13.5753750801086,"pitch":2.6154787166323099}
{"yaw":-0.0250516145811066,"roll":0.26415843028459501,"speed":0,"altitude":-4.7733154296875,"xAccel":-17.824932932853699,"longitude":174.098458886309,"yAccel":-26.4266163110733,"latitude":-39.045552481002197,"date":1445626748.60852,"zAccel":8.1229932606220192,"pitch":2.6450066104234402}
{"yaw":0.14937955924733801,"roll":0.21675888214872799,"speed":0,"altitude":-4.7733154296875,"xAccel":-64.899396896362305,"longitude":174.098458886309,"yAccel":-4.5321304351091403,"latitude":-39.045552481002197,"date":1445626748.82638,"zAccel":-36.582460999488802,"pitch":2.66150753317946}
{"yaw":0.197990198462141,"roll":0.214866841064108,"speed":0,"altitude":-4.56964111328125,"xAccel":-24.1601392626762,"longitude":174.098458886309,"yAccel":-6.26923516392708,"latitude":-39.045552481002197,"date":1445626749.09201,"zAccel":9.5375657081604004,"pitch":2.6718108312920301}
{"yaw":0.19500420085877701,"roll":0.197768169041661,"speed":0,"altitude":-4.56964111328125,"xAccel":-26.718732714653001,"longitude":174.098458886309,"yAccel":-30.797210335731499,"latitude":-39.045552481002197,"date":1445626749.2767601,"zAccel":26.531812548637401,"pitch":2.7309700662713698}
{"yaw":0.13097473173659599,"roll":0.29053428827616701,"speed":0,"altitude":-4.56964111328125,"xAccel":-25.6855547428131,"longitude":174.098458886309,"yAccel":-50.975018739700303,"latitude":-39.045552481002197,"date":1445626749.4242499,"zAccel":10.595361143350599,"pitch":2.5521788402058001}
{"yaw":0.113177619566461,"roll":0.27026311383103202,"speed":0,"altitude":-4.56964111328125,"xAccel":-4.1242528706788999,"longitude":174.098458886309,"yAccel":-33.484846353530898,"latitude":-39.045552481002197,"date":1445626749.6150301,"zAccel":-9.7486339509487205,"pitch":2.5211279675804099}
{"yaw":0.15538639059773901,"roll":0.198083187935432,"speed":0,"altitude":-4.56964111328125,"xAccel":3.8770344108343102,"longitude":174.098458886309,"yAccel":-3.6017674952745402,"latitude":-39.045552481002197,"date":1445626749.7629001,"zAccel":-7.7465794980525997,"pitch":2.6020642882015701}
{"yaw":0.156541460074823,"roll":0.21446484348197101,"speed":0,"altitude":-4.56964111328125,"xAccel":-8.6018823087215406,"longitude":174.098458886309,"yAccel":-21.634575724601699,"latitude":-39.045552481002197,"date":1445626749.9192801,"zAccel":5.3401861339807501,"pitch":2.5599474901408499}
{"yaw":0.16352655778299199,"roll":0.24226737990656799,"speed":0,"altitude":-4.1934814453125,"xAccel":-0.52585583180189099,"longitude":174.098458886309,"yAccel":14.150317013263701,"latitude":-39.045552481002197,"date":1445626750.17802,"zAccel":13.4357765316963,"pitch":2.5128970190252802}
{"yaw":0.15167011436198899,"roll":0.242711216173635,"speed":0,"altitude":-4.1934814453125,"xAccel":-13.339826464652999,"longitude":174.098458886309,"yAccel":-35.751044750213602,"latitude":-39.045552481002197,"date":1445626750.33409,"zAccel":49.329578876495397,"pitch":2.37077213057225}
{"yaw":0.187443912537857,"roll":0.26781880101698202,"speed":0,"altitude":-4.1934814453125,"xAccel":-10.414578765630701,"longitude":174.098458886309,"yAccel":3.19844931364059,"latitude":-39.045552481002197,"date":1445626750.5164199,"zAccel":-9.6052706241607702,"pitch":2.36634207911974}
{"yaw":0.089818365807054296,"roll":0.24214872867982201,"speed":0,"altitude":-4.1934814453125,"xAccel":13.7387484312057,"longitude":174.098458886309,"yAccel":7.68122375011444,"latitude":-39.045552481002197,"date":1445626750.7833099,"zAccel":28.6199033260345,"pitch":2.0039172258554601}
{"yaw":0.0813875913432619,"roll":0.082057307510061697,"speed":0,"altitude":-4.1934814453125,"xAccel":-16.397590935230301,"longitude":174.098458886309,"yAccel":-38.586661219596898,"latitude":-39.045552481002197,"date":1445626750.9152701,"zAccel":-41.913965344429002,"pitch":1.91642738620812}
{"yaw":-0.046616286856585303,"roll":0.243425059328579,"speed":0,"altitude":-3.895263671875,"xAccel":-15.129061043262499,"longitude":174.098458886309,"yAccel":-18.448799848556501,"latitude":-39.045552481002197,"date":1445626751.11426,"zAccel":-104.91403341293299,"pitch":1.6465644718657699}
{"yaw":0.119513097445308,"roll":0.38346079907970798,"speed":0,"altitude":-3.895263671875,"xAccel":24.344062805175799,"longitude":174.098458886309,"yAccel":54.519885778427103,"latitude":-39.045552481002197,"date":1445626751.37691,"zAccel":13.6874541640282,"pitch":2.1148265951440699}
{"yaw":0.37169545678062399,"roll":0.73168247835075395,"speed":0,"altitude":-3.895263671875,"xAccel":32.380786538124099,"longitude":174.098458886309,"yAccel":24.294582009315501,"latitude":-39.045552481002197,"date":1445626751.5298901,"zAccel":42.038840055465698,"pitch":2.4191983314438099}
{"yaw":0.84475109715973895,"roll":0.81652467282025398,"speed":0,"altitude":-3.895263671875,"xAccel":-65.958094596862793,"longitude":174.098458886309,"yAccel":9.3187928199768102,"latitude":-39.045552481002197,"date":1445626751.7644801,"zAccel":-14.5622074604034,"pitch":2.7750034573178501}
{"yaw":2.4643563515127802,"roll":1.0021589120983301,"speed":0,"altitude":-3.895263671875,"xAccel":57.173097133636503,"longitude":174.098458886309,"yAccel":-43.409761786460898,"latitude":-39.045552481002197,"date":1445626751.97664,"zAccel":-0.66118310205638398,"pitch":-1.8168727287523401}
{"yaw":-3.12012667263431,"roll":-0.076549036875468005,"speed":0,"altitude":-3.30322265625,"xAccel":30.517852306365999,"longitude":174.098458886309,"yAccel":-15.6756967306137,"latitude":-39.045552481002197,"date":1445626752.3093901,"zAccel":-23.010109364986398,"pitch":-0.49001055289950002}
{"yaw":3.0952490429503099,"roll":0.026863218257459701,"speed":0,"altitude":-3.30322265625,"xAccel":1.7491091042757001,"longitude":174.098458886309,"yAccel":-6.2220480293035498,"latitude":-39.045552481002197,"date":1445626752.5891399,"zAccel":13.060231506824501,"pitch":-0.46675032554888002}
{"yaw":3.09696753171679,"roll":0.017706866275542799,"speed":0,"altitude":-3.30322265625,"xAccel":2.63729337602854,"longitude":174.098458886309,"yAccel":-4.0367186069488499,"latitude":-39.045552481002197,"date":1445626752.7741599,"zAccel":-0.066767225507646799,"pitch":-0.415903906578934}
{"yaw":3.0965436031570599,"roll":0.022966362686179201,"speed":0,"altitude":-3.30322265625,"xAccel":-0.093091989401727901,"longitude":174.098458886309,"yAccel":-2.3882634937763201,"latitude":-39.045552481002197,"date":1445626752.9340401,"zAccel":6.7220196127891496,"pitch":-0.40238712185130399}
{"yaw":3.0978146235488802,"roll":0.023459651264825,"speed":0,"altitude":-3.02032470703125,"xAccel":-0.77009475789964199,"longitude":174.098458886309,"yAccel":-2.48332377523184,"latitude":-39.045552481002197,"date":1445626753.20941,"zAccel":25.891226530075102,"pitch":-0.38214600814592398}
{"yaw":3.0967359224409199,"roll":0.024881037529265501,"speed":0,"altitude":-3.02032470703125,"xAccel":-1.63507778197527,"longitude":174.098458886309,"yAccel":-5.2981503307819402,"latitude":-39.045552481002197,"date":1445626753.5053599,"zAccel":10.7024028897285,"pitch":-0.38148092223857399}
{"yaw":3.0951456448930101,"roll":0.0265039988897053,"speed":0,"altitude":-3.02032470703125,"xAccel":-0.61071361415088199,"longitude":174.098458886309,"yAccel":-2.23211012780666,"latitude":-39.045552481002197,"date":1445626753.7906201,"zAccel":5.2024744451045999,"pitch":-0.380291426170418}
{"yaw":3.0965410761463401,"roll":0.026582601830694601,"speed":0,"altitude":-3.02032470703125,"xAccel":1.4036746695637701,"longitude":174.098458886309,"yAccel":0.64083188772201505,"latitude":-39.045552481002197,"date":1445626753.9209399,"zAccel":3.2967027276754401,"pitch":-0.37991730334545798}
{"yaw":3.09528948272298,"roll":0.032269700240939399,"speed":0,"altitude":-2.83062744140625,"xAccel":-1.6548765823245,"longitude":174.098458886309,"yAccel":0.0289738905848935,"latitude":-39.045552481002197,"date":1445626754.1617601,"zAccel":2.0083850249648099,"pitch":-0.37886631884646998}
{"yaw":3.0958428591358702,"roll":0.028113052077711798,"speed":0,"altitude":-2.83062744140625,"xAccel":-1.11057385802269,"longitude":174.098458886309,"yAccel":0.15699313953518901,"latitude":-39.045552481002197,"date":1445626754.388,"zAccel":1.5252720564603801,"pitch":-0.374927189875361}
{"yaw":3.0961196961122401,"roll":0.027007157796737302,"speed":0,"altitude":-2.83062744140625,"xAccel":0.88306572288274798,"longitude":174.098458886309,"yAccel":0.16328956698998801,"latitude":-39.045552481002197,"date":1445626754.51789,"zAccel":0.73934863321483102,"pitch":-0.374585064321385}
{"yaw":3.09677273294069,"roll":0.028700467147015001,"speed":0,"altitude":-2.83062744140625,"xAccel":0.34432313404977299,"longitude":174.098458886309,"yAccel":0.35461881197988998,"latitude":-39.045552481002197,"date":1445626754.7843699,"zAccel":0.090388121316209394,"pitch":-0.37528622188809202}
{"yaw":3.0976093821766102,"roll":0.027648569137681499,"speed":0,"altitude":-2.83062744140625,"xAccel":-0.24758030194789199,"longitude":174.098458886309,"yAccel":-0.58101485483348403,"latitude":-39.045552481002197,"date":1445626754.9853799,"zAccel":0.54638418368995201,"pitch":-0.37293240943464501}
{"yaw":-2.8820253466925099,"roll":0.13837287797939299,"speed":0,"altitude":-2.6197509765625,"xAccel":-4.8500157892704001,"longitude":174.098458886309,"yAccel":81.320899724960299,"latitude":-39.045552481002197,"date":1445626755.27666,"zAccel":-50.600463151931798,"pitch":-0.358955885064141}
{"yaw":-2.8895771979662399,"roll":-0.0030425470624928699,"speed":0,"altitude":-2.6197509765625,"xAccel":20.481267571449301,"longitude":174.098458886309,"yAccel":-89.184206724166899,"latitude":-39.045552481002197,"date":1445626755.4254999,"zAccel":5.9305090457201004,"pitch":-0.35345744377315802}
{"yaw":-2.44145383227101,"roll":-0.46863328667590398,"speed":0,"altitude":-2.6197509765625,"xAccel":34.186598658561699,"longitude":174.098458886309,"yAccel":36.334076523780801,"latitude":-39.045552481002197,"date":1445626755.6161799,"zAccel":-60.869508981704698,"pitch":-0.60079323412703101}
{"yaw":-2.1573498878286799,"roll":-0.99735122559776201,"speed":0,"altitude":-2.6197509765625,"xAccel":25.513216853141799,"longitude":174.098458886309,"yAccel":38.1725639104843,"latitude":-39.045552481002197,"date":1445626755.7627399,"zAccel":-27.8872281312943,"pitch":-1.0347604468057801}
{"yaw":-1.54040864238284,"roll":-1.20686584787897,"speed":0,"altitude":-2.6197509765625,"xAccel":-18.113279342651399,"longitude":174.098458886309,"yAccel":19.071644544601401,"latitude":-39.045552481002197,"date":1445626755.8935599,"zAccel":16.411304473876999,"pitch":-1.9294509692801201}
{"yaw":-1.54040864238284,"roll":-1.20686584787897,"speed":0,"altitude":-2.6197509765625,"xAccel":-18.113279342651399,"longitude":174.098458886309,"yAccel":19.071644544601401,"latitude":-39.045552481002197,"date":1445626755.9201701,"zAccel":16.411304473876999,"pitch":-1.9294509692801201}
{"yaw":2.6242148293936101,"roll":-1.1639281403425501,"speed":0,"altitude":-2.6197509765625,"xAccel":-19.824139773845701,"longitude":174.098458886309,"yAccel":50.496703386306798,"latitude":-39.045552481002197,"date":1445626756.0232799,"zAccel":-17.583110928535501,"pitch":-0.66770340182586496}
{"yaw":1.83901427924016,"roll":-0.83493179346956803,"speed":0,"altitude":-2.5712890625,"xAccel":20.322252810001402,"longitude":174.098458886309,"yAccel":-60.854434967041001,"latitude":-39.045552481002197,"date":1445626756.17944,"zAccel":-30.822643637657201,"pitch":-1.0364511101942999}
{"yaw":1.4150576041368399,"roll":-0.66325644256037097,"speed":0,"altitude":-2.5712890625,"xAccel":24.355150759220098,"longitude":174.098458886309,"yAccel":-47.668594121932998,"latitude":-39.045552481002197,"date":1445626756.3095801,"zAccel":-86.148226261138902,"pitch":-0.66734085843716695}
{"yaw":1.17129960137286,"roll":-0.82538509389176196,"speed":0,"altitude":-2.5712890625,"xAccel":38.379752635955803,"longitude":174.098458886309,"yAccel":8.9153110980987496,"latitude":-39.045552481002197,"date":1445626756.4923301,"zAccel":19.214899837970702,"pitch":-1.0617452544076}
{"yaw":1.17129960137286,"roll":-0.82538509389176196,"speed":0,"altitude":-2.5712890625,"xAccel":38.379752635955803,"longitude":174.098458886309,"yAccel":8.9153110980987496,"latitude":-39.045552481002197,"date":1445626756.51775,"zAccel":19.214899837970702,"pitch":-1.0617452544076}
{"yaw":1.3449956982440701,"roll":-0.77139512669516197,"speed":0,"altitude":-2.5712890625,"xAccel":-7.9475611448287999,"longitude":174.098458886309,"yAccel":23.387810587882999,"latitude":-39.045552481002197,"date":1445626756.62182,"zAccel":13.6690065264702,"pitch":-0.86507466190752402}
{"yaw":1.3889901048259501,"roll":-0.113581260810239,"speed":0,"altitude":-2.5712890625,"xAccel":34.389239549636798,"longitude":174.098458886309,"yAccel":117.872977256775,"latitude":-39.045552481002197,"date":1445626756.7771299,"zAccel":63.244640827178998,"pitch":-0.73413780930699901}
{"yaw":1.3889901048259501,"roll":-0.113581260810239,"speed":0,"altitude":-2.5712890625,"xAccel":34.389239549636798,"longitude":174.098458886309,"yAccel":117.872977256775,"latitude":-39.045552481002197,"date":1445626756.8287799,"zAccel":63.244640827178998,"pitch":-0.73413780930699901}
{"yaw":1.52447944446984,"roll":-0.098837955588542595,"speed":0,"altitude":-2.5712890625,"xAccel":200.89430809020999,"longitude":174.098458886309,"yAccel":-6.5468385815620396,"latitude":-39.045552481002197,"date":1445626756.93297,"zAccel":-81.094068288803101,"pitch":-0.294849393098294}
{"yaw":1.76032491011952,"roll":-0.132104199914273,"speed":1.5119999527931201,"altitude":-2.689453125,"xAccel":-10.6695882976055,"longitude":174.098425107239,"yAccel":29.576039314270002,"latitude":-39.045551097988202,"date":1445626757.0931699,"zAccel":109.436333179474,"pitch":-1.7382709377650001}
{"yaw":1.76032491011952,"roll":-0.132104199914273,"speed":1.5119999527931201,"altitude":-2.689453125,"xAccel":-10.6695882976055,"longitude":174.098425107239,"yAccel":29.576039314270002,"latitude":-39.045551097988202,"date":1445626757.11555,"zAccel":109.436333179474,"pitch":-1.7382709377650001}
{"yaw":2.2778048292471298,"roll":0.074282115935371096,"speed":1.5119999527931201,"altitude":-2.689453125,"xAccel":88.5142147541046,"longitude":174.098425107239,"yAccel":-44.874569773673997,"latitude":-39.045551097988202,"date":1445626757.2195201,"zAccel":102.973234653473,"pitch":-1.9979505157253701}
{"yaw":2.7827923083792299,"roll":0.38239456347537298,"speed":1.5119999527931201,"altitude":-2.689453125,"xAccel":107.931995391846,"longitude":174.098425107239,"yAccel":-21.8615770339966,"latitude":-39.045551097988202,"date":1445626757.4029601,"zAccel":-18.332259356975602,"pitch":-1.2427501175444999}
{"yaw":2.85871442160161,"roll":0.49268887664618799,"speed":1.5119999527931201,"altitude":-2.689453125,"xAccel":32.7366799116135,"longitude":174.098425107239,"yAccel":-135.09285449981701,"latitude":-39.045551097988202,"date":1445626757.53159,"zAccel":-92.355102300643907,"pitch":-1.18578663838464}
{"yaw":3.1051988615522599,"roll":0.53036563855896002,"speed":1.5119999527931201,"altitude":-2.689453125,"xAccel":50.067603588104198,"longitude":174.098425107239,"yAccel":133.49689245223999,"latitude":-39.045551097988202,"date":1445626757.6879499,"zAccel":-86.567050218582196,"pitch":-0.51856251136123399}
{"yaw":3.1051988615522599,"roll":0.53036563855896002,"speed":1.5119999527931201,"altitude":-2.689453125,"xAccel":50.067603588104198,"longitude":174.098425107239,"yAccel":133.49689245223999,"latitude":-39.045551097988202,"date":1445626757.7660999,"zAccel":-86.567050218582196,"pitch":-0.51856251136123399}
{"yaw":3.0433377834029698,"roll":0.060265163304432497,"speed":1.5119999527931201,"altitude":-2.689453125,"xAccel":4.0987357497215298,"longitude":174.098425107239,"yAccel":58.712017536163302,"latitude":-39.045551097988202,"date":1445626757.8182399,"zAccel":114.141762256622,"pitch":-1.05382985666824}
{"yaw":2.7192906233583201,"roll":-0.39037283546074603,"speed":1.5119999527931201,"altitude":-2.689453125,"xAccel":-152.645301818848,"longitude":174.098425107239,"yAccel":-125.59357881546001,"latitude":-39.045551097988202,"date":1445626757.97664,"zAccel":-13.0699902772903,"pitch":-1.24917809407905}
{"yaw":2.8153032700218299,"roll":-0.43037221905989598,"speed":1.5119999527931201,"altitude":-2.689453125,"xAccel":-37.932154536247303,"longitude":174.098425107239,"yAccel":23.0036973953247,"latitude":-39.045551097988202,"date":1445626758.02652,"zAccel":42.325425148010297,"pitch":-1.2743184743496201}
{"yaw":2.78198678933017,"roll":-0.47310732145561901,"speed":1.0439999699592599,"altitude":-1.98016357421875,"xAccel":23.160137236118299,"longitude":174.09842586161,"yAccel":30.126711726188699,"latitude":-39.045559982805599,"date":1445626758.15663,"zAccel":-89.929085969924898,"pitch":-0.75873161916458798}
{"yaw":2.5546854135089601,"roll":-0.33551482722729697,"speed":1.0439999699592599,"altitude":-1.98016357421875,"xAccel":12.888981401920301,"longitude":174.09842586161,"yAccel":-14.7140637040138,"latitude":-39.045559982805599,"date":1445626758.30779,"zAccel":-50.599497556686401,"pitch":0.68460491597000495}
{"yaw":2.7608143085914798,"roll":-0.0071059173304344001,"speed":1.0439999699592599,"altitude":-1.98016357421875,"xAccel":22.7986305952072,"longitude":174.09842586161,"yAccel":101.31710767746,"latitude":-39.045559982805599,"date":1445626758.49529,"zAccel":-3.7672787904739402,"pitch":1.06719203285113}
{"yaw":2.90026924066651,"roll":0.00099595817820942803,"speed":1.0439999699592599,"altitude":-1.98016357421875,"xAccel":-103.362619876862,"longitude":174.09842586161,"yAccel":91.176366806030302,"latitude":-39.045559982805599,"date":1445626758.62485,"zAccel":98.804509639740004,"pitch":1.0573433280270901}
{"yaw":2.8085547140734501,"roll":0.160678998120935,"speed":1.0439999699592599,"altitude":-1.98016357421875,"xAccel":-196.20817899703999,"longitude":174.09842586161,"yAccel":-430.97767829895002,"latitude":-39.045559982805599,"date":1445626758.78549,"zAccel":-302.873086929321,"pitch":1.5952546613498999}
{"yaw":2.6359201303175399,"roll":0.18875179372422099,"speed":1.0439999699592599,"altitude":-1.98016357421875,"xAccel":3.5975899547338499,"longitude":174.09842586161,"yAccel":-90.271681547164903,"latitude":-39.045559982805599,"date":1445626758.9114799,"zAccel":-9.3748226761817897,"pitch":1.48578310938361}
{"yaw":2.5893019502966301,"roll":0.203853835080964,"speed":1.0439999699592599,"altitude":-1.98016357421875,"xAccel":25.191384553909302,"longitude":174.09842586161,"yAccel":-33.942475914955097,"latitude":-39.045559982805599,"date":1445626759.0150399,"zAccel":4.3563187122344997,"pitch":1.3872934856814401}
{"yaw":2.55616672829618,"roll":0.20859017987654899,"speed":0,"altitude":-1.59515380859375,"xAccel":-4.5574184507131603,"longitude":174.09842586161,"yAccel":7.2189435362815901,"latitude":-39.045559982805599,"date":1445626759.1143899,"zAccel":19.863907992839799,"pitch":1.2299968023369099}
{"yaw":2.5645520896302898,"roll":0.20677890371937799,"speed":0,"altitude":-1.59515380859375,"xAccel":0.82259727641940095,"longitude":174.09842586161,"yAccel":1.9534623250365299,"latitude":-39.045559982805599,"date":1445626759.22334,"zAccel":11.5251883864403,"pitch":1.19124876697645}
{"yaw":2.6045657144668799,"roll":0.205456605034362,"speed":0,"altitude":-1.59515380859375,"xAccel":7.8510642051696804,"longitude":174.09842586161,"yAccel":9.5200769603252393,"latitude":-39.045559982805599,"date":1445626759.32758,"zAccel":5.1709104329347602,"pitch":1.2397028794959499}
{"yaw":2.6825672528512601,"roll":0.19480733213788901,"speed":0,"altitude":-1.59515380859375,"xAccel":3.8777101784944499,"longitude":174.09842586161,"yAccel":14.7691816091537,"latitude":-39.045559982805599,"date":1445626759.4839799,"zAccel":2.9050363227724998,"pitch":1.37930399705785}
{"yaw":2.8880857751685398,"roll":0.11128757413485101,"speed":0,"altitude":-1.59515380859375,"xAccel":-0.75485655106604099,"longitude":174.09842586161,"yAccel":-0.15165533404797299,"latitude":-39.045559982805599,"date":1445626759.6140499,"zAccel":-3.09632308781147,"pitch":1.79276920157734}
{"yaw":2.9265964182534701,"roll":0.0984823497918835,"speed":0,"altitude":-1.59515380859375,"xAccel":9.70262363553047,"longitude":174.09842586161,"yAccel":91.410571336746202,"latitude":-39.045559982805599,"date":1445626759.7766199,"zAccel":133.946299552917,"pitch":1.59654408191374}
{"yaw":3.03325929655889,"roll":0.117690101962746,"speed":0,"altitude":-1.59515380859375,"xAccel":-2.9828710481524499,"longitude":174.09842586161,"yAccel":1.8911221995949701,"latitude":-39.045559982805599,"date":1445626759.92642,"zAccel":0.19444907084107399,"pitch":1.6862513072159999}
{"yaw":3.0407473284606499,"roll":0.110311054132213,"speed":0,"altitude":-1.59515380859375,"xAccel":-3.8990899920463602,"longitude":174.09842586161,"yAccel":6.7075572907924697,"latitude":-39.045559982805599,"date":1445626760.0819299,"zAccel":-9.4385549426078796,"pitch":1.5935093868449699}
{"yaw":3.0355963298822002,"roll":0.077976023091346797,"speed":0,"altitude":-1.40020751953125,"xAccel":12.4100640416145,"longitude":174.09842586161,"yAccel":10.222823172807701,"latitude":-39.045559982805599,"date":1445626760.3092401,"zAccel":12.484564632177401,"pitch":1.4538559440869001}
{"yaw":3.00929452863851,"roll":0.0505392832731094,"speed":0,"altitude":-1.40020751953125,"xAccel":12.688800692558299,"longitude":174.09842586161,"yAccel":-3.7721399217844001,"latitude":-39.045559982805599,"date":1445626760.42153,"zAccel":2.3401482030749299,"pitch":1.44644134553282}
{"yaw":3.0218215965586199,"roll":0.0239536697440552,"speed":0,"altitude":-1.40020751953125,"xAccel":8.9503139257430995,"longitude":174.09842586161,"yAccel":-7.7670253813266799,"latitude":-39.045559982805599,"date":1445626760.52405,"zAccel":13.733029365539601,"pitch":1.43185290998932}
{"yaw":3.0221092704119799,"roll":0.042991510747183201,"speed":0,"altitude":-1.40020751953125,"xAccel":8.2162842154502904,"longitude":174.09842586161,"yAccel":0.58889198116958097,"latitude":-39.045559982805599,"date":1445626760.6803801,"zAccel":-3.2249487936496699,"pitch":1.3960181967015699}
{"yaw":3.00351424913472,"roll":0.23358303353179799,"speed":0,"altitude":-1.40020751953125,"xAccel":-2.63630263507366,"longitude":174.09842586161,"yAccel":18.8275277614594,"latitude":-39.045559982805599,"date":1445626760.81072,"zAccel":-6.9079339504241899,"pitch":1.3023520613334501}
{"yaw":3.0657691576833401,"roll":0.26082907710466902,"speed":0,"altitude":-1.40020751953125,"xAccel":-17.597147822380101,"longitude":174.09842586161,"yAccel":1.36285265907645,"latitude":-39.045559982805599,"date":1445626760.99208,"zAccel":15.4905140399933,"pitch":1.26538618081661}
{"yaw":3.1150168462162999,"roll":-0.020844668846469201,"speed":0,"altitude":-1.40020751953125,"xAccel":16.148410737514499,"longitude":174.09842586161,"yAccel":25.932428240776101,"latitude":-39.045559982805599,"date":1445626761.12252,"zAccel":-1.41147607937455,"pitch":1.1255990620217}
{"yaw":3.1310505731449201,"roll":-0.175069384170431,"speed":0,"altitude":-0.84051513671875,"xAccel":18.394732475280801,"longitude":174.09842586161,"yAccel":15.948377549648299,"latitude":-39.045559982805599,"date":1445626761.2786901,"zAccel":7.9692341387271899,"pitch":1.0090472489472699}
{"yaw":3.1413947388275298,"roll":-0.229487914644423,"speed":0,"altitude":-0.84051513671875,"xAccel":36.939916014671297,"longitude":174.09842586161,"yAccel":-28.279495239257798,"latitude":-39.045559982805599,"date":1445626761.43501,"zAccel":10.033409297466299,"pitch":0.97206326456640002}
{"yaw":-3.1307383880199402,"roll":-0.079854244536322394,"speed":0,"altitude":-0.84051513671875,"xAccel":-2.7981074526906,"longitude":174.09842586161,"yAccel":22.638729214668299,"latitude":-39.045559982805599,"date":1445626761.5903399,"zAccel":-1.6682898625731499,"pitch":1.0503453675993999}
{"yaw":3.1300872552399199,"roll":0.20321597589174101,"speed":0,"altitude":-0.84051513671875,"xAccel":-0.38835669402033102,"longitude":174.09842586161,"yAccel":9.5051415264606494,"latitude":-39.045559982805599,"date":1445626761.7727001,"zAccel":3.53530533611774,"pitch":1.1875620275466601}
{"yaw":3.0731901042663599,"roll":0.300580613208216,"speed":0,"altitude":-0.84051513671875,"xAccel":0.63714687712490603,"longitude":174.09842586161,"yAccel":-3.5884954035282099,"latitude":-39.045559982805599,"date":1445626761.91133,"zAccel":-2.1099952980876,"pitch":1.3264492772971801}
{"yaw":3.1105327487402898,"roll":0.20301182978525001,"speed":0,"altitude":-0.84051513671875,"xAccel":-5.6711081415414801,"longitude":174.09842586161,"yAccel":-1.0726046748459299,"latitude":-39.045559982805599,"date":1445626762.08851,"zAccel":-1.94245371967554,"pitch":1.40539158617767}
{"yaw":-3.1361531853716098,"roll":0.068369199335454101,"speed":0,"altitude":-0.6263427734375,"xAccel":7.7288113534450504,"longitude":174.09842586161,"yAccel":18.1303471326828,"latitude":-39.045559982805599,"date":1445626762.2193999,"zAccel":19.1639557480812,"pitch":1.56300048046517}
{"yaw":-3.0757008610721601,"roll":0.045651768995586199,"speed":0,"altitude":-0.6263427734375,"xAccel":-13.559272885322599,"longitude":174.09842586161,"yAccel":-32.015243172645597,"latitude":-39.045559982805599,"date":1445626762.3261299,"zAccel":-6.37241154909134,"pitch":1.67618476868332}
{"yaw":-3.0791132218575101,"roll":0.0348613736910676,"speed":0,"altitude":-0.6263427734375,"xAccel":-15.609417855739601,"longitude":174.09842586161,"yAccel":-1.11304381862283,"latitude":-39.045559982805599,"date":1445626762.47662,"zAccel":-3.5455532371997802,"pitch":1.7197889925755301}
{"yaw":-3.03431852423302,"roll":0.0093376536894762396,"speed":0,"altitude":-0.6263427734375,"xAccel":7.4935048818588301,"longitude":174.09842586161,"yAccel":13.529096543788899,"latitude":-39.045559982805599,"date":1445626762.6136601,"zAccel":7.3379069566726702,"pitch":1.60855674514531}
{"yaw":-3.1269562336127099,"roll":0.052960155718539403,"speed":0,"altitude":-0.6263427734375,"xAccel":6.6759862005710602,"longitude":174.09842586161,"yAccel":-70.575577020645099,"latitude":-39.045559982805599,"date":1445626762.78668,"zAccel":10.457877069711699,"pitch":1.60930700241703}
{"yaw":3.10398751873681,"roll":0.049941740334319397,"speed":0,"altitude":-0.6263427734375,"xAccel":-5.0436072051525098,"longitude":174.09842586161,"yAccel":-0.449759140610695,"latitude":-39.045559982805599,"date":1445626762.9165299,"zAccel":19.411469995975501,"pitch":1.6249751462183599}
{"yaw":3.0968940920662602,"roll":0.054093600539634801,"speed":0,"altitude":-0.6263427734375,"xAccel":4.6727746725082397,"longitude":174.09842586161,"yAccel":7.7598959207534799,"latitude":-39.045559982805599,"date":1445626763.09781,"zAccel":-1.53113640844822,"pitch":1.64281063886481}
{"yaw":3.1038456424446101,"roll":0.0578018115275327,"speed":0,"altitude":-0.3289794921875,"xAccel":-5.6671287864446596,"longitude":174.09842586161,"yAccel":-3.3564127981662799,"latitude":-39.045559982805599,"date":1445626763.2281301,"zAccel":2.0099326968193099,"pitch":1.72368770984844}
{"yaw":3.0760719354393098,"roll":0.053797306774630599,"speed":0,"altitude":-0.3289794921875,"xAccel":-0.54022232070565201,"longitude":174.09842586161,"yAccel":5.3105846047401402,"latitude":-39.045559982805599,"date":1445626763.38449,"zAccel":8.6445719003677404,"pitch":1.76177918868036}
{"yaw":3.0594066306900598,"roll":0.027183252261100601,"speed":0,"altitude":-0.3289794921875,"xAccel":-0.28036157600581602,"longitude":174.09842586161,"yAccel":-5.3141016513109198,"latitude":-39.045559982805599,"date":1445626763.5138099,"zAccel":7.4452258646488199,"pitch":1.80054687869562}
{"yaw":3.0609794168873199,"roll":0.0089549792558971802,"speed":0,"altitude":-0.3289794921875,"xAccel":5.7523585855960802,"longitude":174.09842586161,"yAccel":-8.3037309348583204,"latitude":-39.045559982805599,"date":1445626763.67661,"zAccel":1.03202555328608,"pitch":1.7844684630791201}
{"yaw":3.0619571591141601,"roll":-0.014093249346814199,"speed":0,"altitude":-0.3289794921875,"xAccel":1.19234528392553,"longitude":174.09842586161,"yAccel":-0.514437165111303,"latitude":-39.045559982805599,"date":1445626763.8260701,"zAccel":2.3505914956331302,"pitch":1.7402552074542901}
{"yaw":3.05236284315732,"roll":-0.0166813527864372,"speed":0,"altitude":-0.3289794921875,"xAccel":-5.6918006390333202,"longitude":174.09842586161,"yAccel":-16.2153273820877,"latitude":-39.045559982805599,"date":1445626763.98125,"zAccel":-1.08177633956075,"pitch":1.7060853120796799}
{"yaw":3.0615775997311601,"roll":-0.0135493105567349,"speed":0,"altitude":-0.3289794921875,"xAccel":14.433379471302,"longitude":174.09842586161,"yAccel":9.4248503446578997,"latitude":-39.045559982805599,"date":1445626764.11373,"zAccel":-0.63516036607325099,"pitch":1.6288289284979101}
{"yaw":-3.1382058041528702,"roll":0.00085115141764254703,"speed":0,"altitude":-0.33544921875,"xAccel":-12.089872360229499,"longitude":174.09842586161,"yAccel":3.0899344012141201,"latitude":-39.045559982805599,"date":1445626764.2930901,"zAccel":1.7219118773937201,"pitch":1.4419838108476299}
{"yaw":-3.11271248919163,"roll":0.044627441920862702,"speed":0,"altitude":-0.33544921875,"xAccel":-9.9476113915443403,"longitude":174.09842586161,"yAccel":0.17355076270177999,"latitude":-39.045559982805599,"date":1445626764.42643,"zAccel":2.8194693848490702,"pitch":1.3510064311855601}
{"yaw":-3.1304673206873699,"roll":0.066092394791975304,"speed":0,"altitude":-0.33544921875,"xAccel":9.6439793705940193,"longitude":174.09842586161,"yAccel":-7.2543933987617502,"latitude":-39.045559982805599,"date":1445626764.5799,"zAccel":4.2687170207500502,"pitch":1.3671611951059499}
{"yaw":3.1135829796847201,"roll":0.11406155632491199,"speed":0,"altitude":-0.33544921875,"xAccel":7.6903380453586596,"longitude":174.09842586161,"yAccel":8.6252331733703596,"latitude":-39.045559982805599,"date":1445626764.75949,"zAccel":2.9972225427627599,"pitch":1.4052163697565001}
{"yaw":3.1070968500068701,"roll":0.14709789310306001,"speed":0,"altitude":-0.33544921875,"xAccel":-9.6397712826728803,"longitude":174.09842586161,"yAccel":-7.0904850959777797,"latitude":-39.045559982805599,"date":1445626764.91483,"zAccel":-1.7394457012414899,"pitch":1.4329359707020899}
{"yaw":3.0942656441674399,"roll":0.17953835878531901,"speed":0,"altitude":-0.33544921875,"xAccel":2.03569885343313,"longitude":174.09842586161,"yAccel":1.6045775264501601,"latitude":-39.045559982805599,"date":1445626765.0444701,"zAccel":-0.068708776962012094,"pitch":1.46640772524815}
{"yaw":3.1349231199043999,"roll":0.20039902239677701,"speed":0,"altitude":0.38262939453125,"xAccel":-2.5137003511190401,"longitude":174.09842586161,"yAccel":10.622504353523301,"latitude":-39.045559982805599,"date":1445626765.2261801,"zAccel":-5.2033875137567502,"pitch":1.4785809328359401}
{"yaw":3.1349231199043999,"roll":0.20039902239677701,"speed":0,"altitude":0.38262939453125,"xAccel":-2.5137003511190401,"longitude":174.09842586161,"yAccel":10.622504353523301,"latitude":-39.045559982805599,"date":1445626765.31301,"zAccel":-5.2033875137567502,"pitch":1.4785809328359401}
{"yaw":-3.05817255037626,"roll":0.26463131595667,"speed":0,"altitude":0.38262939453125,"xAccel":7.2283416986465499,"longitude":174.09842586161,"yAccel":21.329332888126402,"latitude":-39.045559982805599,"date":1445626765.4845901,"zAccel":0.779393455013633,"pitch":1.4967702456368901}
{"yaw":-3.0101581324031499,"roll":0.27187659510919499,"speed":0,"altitude":0.38262939453125,"xAccel":-10.1653911173344,"longitude":174.09842586161,"yAccel":-1.57107450067997,"latitude":-39.045559982805599,"date":1445626765.6149099,"zAccel":-4.70522493124008,"pitch":1.51817136554363}
{"yaw":-3.00438607104459,"roll":0.28850925199939098,"speed":0,"altitude":0.38262939453125,"xAccel":-2.0530303940176999,"longitude":174.09842586161,"yAccel":-2.6659687981009501,"latitude":-39.045559982805599,"date":1445626765.77667,"zAccel":-0.29474624898284701,"pitch":1.4568387508031599}
{"yaw":-2.98741041487057,"roll":0.23546261711366301,"speed":0,"altitude":0.38262939453125,"xAccel":-2.5099471211433402,"longitude":174.09842586161,"yAccel":-3.58708947896957,"latitude":-39.045559982805599,"date":1445626765.9267399,"zAccel":0.94578256830573104,"pitch":1.3955147081867501}
{"yaw":-2.98741041487057,"roll":0.23546261711366301,"speed":0,"altitude":0.38262939453125,"xAccel":-2.5099471211433402,"longitude":174.09842586161,"yAccel":-3.58708947896957,"latitude":-39.045559982805599,"date":1445626766.0098701,"zAccel":0.94578256830573104,"pitch":1.3955147081867501}
{"yaw":-3.08292110881079,"roll":0.16370140337138001,"speed":0,"altitude":0.37835693359375,"xAccel":-16.684749722480799,"longitude":174.09842586161,"yAccel":1.8363362178206399,"latitude":-39.045559982805599,"date":1445626766.2386701,"zAccel":6.7744232714176196,"pitch":1.3269812305186699}
{"yaw":-3.1314679585984999,"roll":0.131900485261572,"speed":0,"altitude":0.37835693359375,"xAccel":-3.51533964276314,"longitude":174.09842586161,"yAccel":-16.9274836778641,"latitude":-39.045559982805599,"date":1445626766.42048,"zAccel":-3.1963013112545,"pitch":1.3158254836224099}
{"yaw":3.1154039804286802,"roll":0.117442421802845,"speed":0,"altitude":0.37835693359375,"xAccel":7.4737943708896601,"longitude":174.09842586161,"yAccel":4.7116670757532102,"latitude":-39.045559982805599,"date":1445626766.52507,"zAccel":-5.5234923958778399,"pitch":1.2816011209411899}
{"yaw":3.0987322053888602,"roll":0.117278758350375,"speed":0,"altitude":0.37835693359375,"xAccel":-2.13413443416357,"longitude":174.09842586161,"yAccel":-3.2472901046276101,"latitude":-39.045559982805599,"date":1445626766.61167,"zAccel":4.8141703009605399,"pitch":1.2461446827311899}
{"yaw":3.0630904081813299,"roll":0.096082418794126906,"speed":0,"altitude":0.37835693359375,"xAccel":0.091817142674699398,"longitude":174.09842586161,"yAccel":-3.2831359654665002,"latitude":-39.045559982805599,"date":1445626766.78755,"zAccel":8.1947997212410009,"pitch":1.23799297162694}
{"yaw":3.0168543659900702,"roll":0.090960240789380004,"speed":0,"altitude":0.37835693359375,"xAccel":2.2917991504073099,"longitude":174.09842586161,"yAccel":0.70289797149598598,"latitude":-39.045559982805599,"date":1445626766.9926801,"zAccel":-5.4764535278081903,"pitch":1.31110282544434}
{"yaw":2.9916948912857402,"roll":0.081769082671019899,"speed":0,"altitude":0.705078125,"xAccel":16.071851551532699,"longitude":174.09842586161,"yAccel":13.647104799747501,"latitude":-39.045559982805599,"date":1445626767.1218801,"zAccel":5.79589791595936,"pitch":1.3596750809570399}
{"yaw":3.0098132601196501,"roll":0.066226251908388004,"speed":0,"altitude":0.705078125,"xAccel":2.69017294049263,"longitude":174.09842586161,"yAccel":1.50863341987133,"latitude":-39.045559982805599,"date":1445626767.32851,"zAccel":-2.7233075350522999,"pitch":1.4289630067060299}
{"yaw":3.0645543667479198,"roll":0.0311379683648998,"speed":0,"altitude":0.705078125,"xAccel":1.36768817901611,"longitude":174.09842586161,"yAccel":-4.2687777429819098,"latitude":-39.045559982805599,"date":1445626767.5891299,"zAccel":4.0163315832614899,"pitch":1.4950516033349801}
{"yaw":3.0915060598406399,"roll":0.027474423767111601,"speed":0,"altitude":0.705078125,"xAccel":-1.8686870113015199,"longitude":174.09842586161,"yAccel":-5.2412126213312096,"latitude":-39.045559982805599,"date":1445626767.80861,"zAccel":-2.6195129379630102,"pitch":1.4991332124451}
{"yaw":3.09297094631544,"roll":0.026128871525957699,"speed":0,"altitude":0.705078125,"xAccel":-8.2547195255756396,"longitude":174.09842586161,"yAccel":3.8766998797655101,"latitude":-39.045559982805599,"date":1445626767.9597199,"zAccel":5.7651732116937602,"pitch":1.48589160339367}
{"yaw":3.0935861082377101,"roll":0.036546571120668399,"speed":0,"altitude":0.79791259765625,"xAccel":-4.71560209989548,"longitude":174.09842586161,"yAccel":-2.1285654976964001,"latitude":-39.045559982805599,"date":1445626768.1844101,"zAccel":3.83945479989052,"pitch":1.4404922732644501}
{"yaw":3.0879462635204602,"roll":0.034162836303462403,"speed":0,"altitude":0.79791259765625,"xAccel":-4.1176449507474899,"longitude":174.09842586161,"yAccel":0.71279392577707801,"latitude":-39.045559982805599,"date":1445626768.3146601,"zAccel":-2.3936411365866701,"pitch":1.4544737732649}
{"yaw":3.0654865293670599,"roll":0.017339774834983199,"speed":0,"altitude":0.79791259765625,"xAccel":3.3574257045984299,"longitude":174.09842586161,"yAccel":1.93702280521393,"latitude":-39.045559982805599,"date":1445626768.4187601,"zAccel":-4.7465134412050203,"pitch":1.48207910420762}
{"yaw":3.13305659179664,"roll":0.020124376353594101,"speed":0,"altitude":0.79791259765625,"xAccel":0.57187210768461205,"longitude":174.09842586161,"yAccel":-5.9842523187398902,"latitude":-39.045559982805599,"date":1445626768.62729,"zAccel":-3.8671415299177201,"pitch":1.4280350047272099}
{"yaw":-3.11826226870632,"roll":0.0106106138940864,"speed":0,"altitude":0.79791259765625,"xAccel":5.8538272976875296,"longitude":174.09842586161,"yAccel":9.7672380506992305,"latitude":-39.045559982805599,"date":1445626768.8176501,"zAccel":-14.2149448394775,"pitch":1.31699964120222}
{"yaw":-3.0896189906304201,"roll":0.041402501726262302,"speed":0,"altitude":0.79791259765625,"xAccel":-5.1504831761121697,"longitude":174.09842586161,"yAccel":0.16320490976795601,"latitude":-39.045559982805599,"date":1445626769.0764599,"zAccel":1.1577378027141101,"pitch":1.2866377368264501}
{"yaw":-3.0516921515207498,"roll":0.051989885841344501,"speed":0,"altitude":0.74609375,"xAccel":-4.5964438468217796,"longitude":174.09842586161,"yAccel":2.7189223095774699,"latitude":-39.045559982805599,"date":1445626769.2265799,"zAccel":-3.4620188176631901,"pitch":1.3576129084167301}
{"yaw":-2.9950161986541599,"roll":0.044638768401737597,"speed":0,"altitude":0.74609375,"xAccel":-6.4690016210079202,"longitude":174.09842586161,"yAccel":-3.1876768916845299,"latitude":-39.045559982805599,"date":1445626769.43291,"zAccel":-0.019348056230228401,"pitch":1.4773257303744001}
{"yaw":-3.0037356544443101,"roll":-0.030997883640306902,"speed":0,"altitude":0.74609375,"xAccel":-3.3846314996480902,"longitude":174.09842586161,"yAccel":-16.286537051200899,"latitude":-39.045559982805599,"date":1445626769.67588,"zAccel":-8.5590429604053497,"pitch":1.4853355587486801}
