{"yaw":0.0123850102097247,"roll":-0.052874862423401101,"speed":-3.6000000000000001,"altitude":-6.604736328125,"xAccel":-18.349598348140699,"longitude":174.80540173077199,"yAccel":24.809026718139599,"latitude":-41.3291852343988,"date":1446263094.0548501,"zAccel":13.436026871204399,"pitch":2.7617379010862599}
{"yaw":0.026052596369850599,"roll":-0.099786385667460606,"speed":-3.6000000000000001,"altitude":-6.604736328125,"xAccel":-7.7434584498405501,"longitude":174.80540173077199,"yAccel":-0.66910171881318103,"latitude":-41.3291852343988,"date":1446263094.1549499,"zAccel":-0.71719773113727603,"pitch":2.80288051918409}
{"yaw":-0.0029944498111228899,"roll":-0.103189318957424,"speed":-3.6000000000000001,"altitude":-6.604736328125,"xAccel":-5.3476259112358102,"longitude":174.80540173077199,"yAccel":2.6782954111695298,"latitude":-41.3291852343988,"date":1446263094.2544601,"zAccel":5.3222049027681404,"pitch":2.7303722161927699}
{"yaw":-0.00091328547690864496,"roll":-0.12265204015158,"speed":-3.6000000000000001,"altitude":-6.604736328125,"xAccel":-4.19461913406849,"longitude":174.80540173077199,"yAccel":11.2887151539326,"latitude":-41.3291852343988,"date":1446263094.3549299,"zAccel":-20.9968149662018,"pitch":2.7127025268493901}
{"yaw":-0.0054429642133867698,"roll":-0.030912554424565999,"speed":-3.6000000000000001,"altitude":-6.604736328125,"xAccel":-12.314701080322299,"longitude":174.80540173077199,"yAccel":0.80268485471606299,"latitude":-41.3291852343988,"date":1446263094.4549799,"zAccel":-0.715197343379259,"pitch":2.7383697075186202}
{"yaw":-0.011364481705095001,"roll":0.0303114139616362,"speed":-3.6000000000000001,"altitude":-6.604736328125,"xAccel":-29.162314534187299,"longitude":174.80540173077199,"yAccel":24.941715598106398,"latitude":-41.3291852343988,"date":1446263094.5550699,"zAccel":16.9262230396271,"pitch":2.7545251838986302}
{"yaw":-0.032159974058107298,"roll":-0.053562489669370002,"speed":1.15199997425079,"altitude":-1.84893798828125,"xAccel":-26.6366481781006,"longitude":174.805268319486,"yAccel":-11.785776913166,"latitude":-41.329158288465202,"date":1446263094.655,"zAccel":-27.8850674629211,"pitch":2.8202046221661101}
{"yaw":-0.123203573786184,"roll":-0.077449217803444798,"speed":1.15199997425079,"altitude":-1.84893798828125,"xAccel":-36.615964770317099,"longitude":174.805268319486,"yAccel":4.8390049487352398,"latitude":-41.329158288465202,"date":1446263094.75493,"zAccel":-14.4750639796257,"pitch":2.8173871319603601}
{"yaw":-0.20951156315469999,"roll":-0.12868179207171801,"speed":1.15199997425079,"altitude":-1.84893798828125,"xAccel":-14.152580499649,"longitude":174.805268319486,"yAccel":7.1807935833930996,"latitude":-41.329158288465202,"date":1446263094.8549399,"zAccel":-1.8865050747990599,"pitch":2.8284085899259201}
{"yaw":-0.32224848576468601,"roll":-0.12570327707516701,"speed":1.15199997425079,"altitude":-1.84893798828125,"xAccel":-8.8263116776943207,"longitude":174.805268319486,"yAccel":24.1518899798393,"latitude":-41.329158288465202,"date":1446263094.95467,"zAccel":6.7946918308734903,"pitch":2.8067071082384398}
{"yaw":-0.392586855010431,"roll":-0.173979844268255,"speed":1.15199997425079,"altitude":-1.84893798828125,"xAccel":-8.0452106893062592,"longitude":174.805268319486,"yAccel":-5.9336900711059597,"latitude":-41.329158288465202,"date":1446263095.05424,"zAccel":9.7641862928867305,"pitch":2.82606005735907}
{"yaw":-0.42717666024398698,"roll":-0.16120752285624601,"speed":1.15199997425079,"altitude":-1.84893798828125,"xAccel":-5.9558041393756902,"longitude":174.805268319486,"yAccel":-13.548161089420301,"latitude":-41.329158288465202,"date":1446263095.1549499,"zAccel":10.607416182756401,"pitch":2.8086343854932898}
{"yaw":-0.43937120254134399,"roll":-0.15466482751284899,"speed":1.15199997425079,"altitude":-1.84893798828125,"xAccel":-1.99852157384157,"longitude":174.805268319486,"yAccel":-8.0790579319000209,"latitude":-41.329158288465202,"date":1446263095.2543099,"zAccel":-9.3351304531097394,"pitch":2.7881973122475401}
{"yaw":-0.41778983611096199,"roll":-0.147348549420102,"speed":1.15199997425079,"altitude":-1.84893798828125,"xAccel":-12.302748113870599,"longitude":174.805268319486,"yAccel":-7.2439968585968,"latitude":-41.329158288465202,"date":1446263095.3549299,"zAccel":13.58762383461,"pitch":2.7515836348737799}
{"yaw":-0.37796636563488001,"roll":-0.158389952607597,"speed":1.15199997425079,"altitude":-1.84893798828125,"xAccel":-10.0035034120083,"longitude":174.805268319486,"yAccel":5.9693947434425398,"latitude":-41.329158288465202,"date":1446263095.4549401,"zAccel":-12.4600611627102,"pitch":2.7704832415567799}
{"yaw":-0.31185705150207799,"roll":-0.21586353655662699,"speed":1.15199997425079,"altitude":-1.84893798828125,"xAccel":6.8111851811408997,"longitude":174.805268319486,"yAccel":4.9499612301588103,"latitude":-41.329158288465202,"date":1446263095.5548999,"zAccel":-1.7809212207794201,"pitch":2.7710700903282102}
{"yaw":-0.23574016752406399,"roll":-0.28010360843820498,"speed":1.15199997425079,"altitude":-1.84893798828125,"xAccel":5.4828349500894502,"longitude":174.805268319486,"yAccel":8.2593455910682696,"latitude":-41.329158288465202,"date":1446263095.6538999,"zAccel":-27.251467108726501,"pitch":2.7703553773040102}
{"yaw":-0.16455065049352,"roll":-0.35756443113511699,"speed":0,"altitude":-2.008544921875,"xAccel":-5.09520024061203,"longitude":174.805360436602,"yAccel":2.9773484915494901,"latitude":-41.329206945413098,"date":1446263095.7551301,"zAccel":-23.998473584651901,"pitch":2.7186039551393901}
{"yaw":-0.086354877818537901,"roll":-0.43385390050936401,"speed":0,"altitude":-2.008544921875,"xAccel":2.0409878343343699,"longitude":174.805360436602,"yAccel":-2.0220721140503901,"latitude":-41.329206945413098,"date":1446263095.8549299,"zAccel":21.590231359004999,"pitch":2.6110340611818601}
{"yaw":-0.033020246659916902,"roll":-0.41983576021907698,"speed":0,"altitude":-2.008544921875,"xAccel":11.1539296805859,"longitude":174.805360436602,"yAccel":4.5478917658329001,"latitude":-41.329206945413098,"date":1446263095.95524,"zAccel":30.125218629837001,"pitch":2.5303793140826301}
{"yaw":0.0230724163275642,"roll":-0.40416568972516298,"speed":0,"altitude":-2.008544921875,"xAccel":13.464125990867601,"longitude":174.805360436602,"yAccel":13.7393668293953,"latitude":-41.329206945413098,"date":1446263096.0548301,"zAccel":-0.32392670400440698,"pitch":2.5215012454352399}
{"yaw":0.11045739846897,"roll":-0.379332595457121,"speed":0,"altitude":-2.008544921875,"xAccel":-21.228057146072398,"longitude":174.805360436602,"yAccel":14.541517198085799,"latitude":-41.329206945413098,"date":1446263096.1550601,"zAccel":25.9779661893845,"pitch":2.52049933921655}
{"yaw":0.122276702351372,"roll":-0.35999724338762501,"speed":0,"altitude":-2.008544921875,"xAccel":-12.673148512840299,"longitude":174.805360436602,"yAccel":1.0758400894701501,"latitude":-41.329206945413098,"date":1446263096.2549901,"zAccel":-21.273742616176602,"pitch":2.6035772616514299}
{"yaw":-0.013299614740042799,"roll":-0.28351181240338102,"speed":0,"altitude":-2.008544921875,"xAccel":-7.18737617135048,"longitude":174.805360436602,"yAccel":-8.14337357878685,"latitude":-41.329206945413098,"date":1446263096.8329401,"zAccel":-28.665557503700299,"pitch":2.7143403190456201}
{"yaw":-0.46152750779073598,"roll":-0.128709948570743,"speed":0,"altitude":-2.008544921875,"xAccel":-7.1164928376674697,"longitude":174.805360436602,"yAccel":0.73601598851382699,"latitude":-41.329206945413098,"date":1446263097.0329101,"zAccel":41.630086302757299,"pitch":2.6477953404211001}
{"yaw":-0.32153526103471802,"roll":-0.39481933134671199,"speed":0,"altitude":-2.008544921875,"xAccel":7.5426325201988202,"longitude":174.805360436602,"yAccel":1.34549736976624,"latitude":-41.329206945413098,"date":1446263097.2329199,"zAccel":-24.370545148849502,"pitch":2.2707353195759299}
{"yaw":-0.62647528718948697,"roll":-0.36093100555694602,"speed":0,"altitude":-2.008544921875,"xAccel":-2.9033467173576399,"longitude":174.805360436602,"yAccel":-2.1838998422026599,"latitude":-41.329206945413098,"date":1446263097.43748,"zAccel":-18.118302524089799,"pitch":2.5115667564530599}
{"yaw":-0.59678436395088397,"roll":-0.32775647294981403,"speed":0,"altitude":-2.008544921875,"xAccel":-17.194110155105601,"longitude":174.805360436602,"yAccel":-18.543151021003698,"latitude":-41.329206945413098,"date":1446263097.7367899,"zAccel":13.0412027239799,"pitch":2.6121609441631302}
{"yaw":0.072113468166696101,"roll":-0.37107546725657597,"speed":0,"altitude":-2.008544921875,"xAccel":-32.646983861923196,"longitude":174.805360436602,"yAccel":12.6776307821274,"latitude":-41.329206945413098,"date":1446263097.94262,"zAccel":35.8347922563553,"pitch":2.4638105830450701}
{"yaw":-0.122976524602683,"roll":-0.63193564998057505,"speed":0,"altitude":-2.008544921875,"xAccel":-3.4585885703563699,"longitude":174.805360436602,"yAccel":15.322603285312701,"latitude":-41.329206945413098,"date":1446263098.1338501,"zAccel":-9.4224967062473297,"pitch":2.4349836656331001}
{"yaw":-0.19276081700297201,"roll":-0.677695678068165,"speed":0,"altitude":-2.7808837890625,"xAccel":1.78063306957483,"longitude":174.80534886957599,"yAccel":16.093672811985002,"latitude":-41.329192151354,"date":1446263098.86286,"zAccel":7.1364127099513999,"pitch":2.39108708908087}
{"yaw":0.081143512891231798,"roll":-0.30736153469551403,"speed":0,"altitude":-2.7808837890625,"xAccel":-33.585482835769703,"longitude":174.80534886957599,"yAccel":2.7219278737902601,"latitude":-41.329192151354,"date":1446263099.5437801,"zAccel":-43.716990947723403,"pitch":1.7392162995293901}
{"yaw":0.378935545273765,"roll":-0.43976139510934298,"speed":0,"altitude":-2.37615966796875,"xAccel":-6.1954043805599204,"longitude":174.80534886957599,"yAccel":-81.288927793502793,"latitude":-41.329192151354,"date":1446263100.6647501,"zAccel":-77.471679449081407,"pitch":1.83006638602883}
{"yaw":0.43983245114008301,"roll":0.28582526730696101,"speed":0,"altitude":-2.9200439453125,"xAccel":15.8932968974113,"longitude":174.80534886957599,"yAccel":-5.4183464497327796,"latitude":-41.329192151354,"date":1446263100.8986599,"zAccel":-12.629054486751601,"pitch":2.4531097686626602}
{"yaw":0.40016620091831101,"roll":0.172109782737739,"speed":0,"altitude":-2.9200439453125,"xAccel":5.4134875535965001,"longitude":174.80534886957599,"yAccel":4.2746573686599696,"latitude":-41.329192151354,"date":1446263101.1280401,"zAccel":-2.84159407019615,"pitch":2.3793181559643601}
{"yaw":0.32645642653580598,"roll":0.25313684120357399,"speed":0,"altitude":-4.0789794921875,"xAccel":-1.5869583934545499,"longitude":174.80534886957599,"yAccel":9.8624713718891108,"latitude":-41.329192151354,"date":1446263101.30989,"zAccel":-7.8273497521877298,"pitch":2.5090013433562501}
{"yaw":0.19985755936438601,"roll":0.190563702496964,"speed":0,"altitude":-4.0789794921875,"xAccel":16.8340042233467,"longitude":174.80534886957599,"yAccel":15.2014344930649,"latitude":-41.329192151354,"date":1446263101.49523,"zAccel":-0.23245736956596399,"pitch":2.4550238229724699}
{"yaw":0.26538720819508999,"roll":0.18978137940595399,"speed":0,"altitude":-4.0789794921875,"xAccel":-1.81276462972164,"longitude":174.80534886957599,"yAccel":-11.4143304526806,"latitude":-41.329192151354,"date":1446263101.64925,"zAccel":1.41511941328645,"pitch":2.4544421227925}
{"yaw":0.79280572537523697,"roll":-0.21329502400704001,"speed":0,"altitude":-4.0789794921875,"xAccel":-17.831042408943201,"longitude":174.80534886957599,"yAccel":10.1305522024632,"latitude":-41.329192151354,"date":1446263101.8025999,"zAccel":-1.24845579266548,"pitch":2.1501693415653702}
{"yaw":1.97982640767513,"roll":-0.48227769771937101,"speed":0,"altitude":-4.0789794921875,"xAccel":-54.810309410095201,"longitude":174.80534886957599,"yAccel":-13.2610976696014,"latitude":-41.329192151354,"date":1446263102.0206299,"zAccel":7.3932811617851302,"pitch":1.0406174818540901}
{"yaw":2.8708829410297101,"roll":-0.020718918011140099,"speed":0,"altitude":-3.85638427734375,"xAccel":-4.2232327163219496,"longitude":174.80534886957599,"yAccel":-0.056458695326000501,"latitude":-41.329192151354,"date":1446263102.1938701,"zAccel":-6.80205971002579,"pitch":0.58130351886732101}
{"yaw":-3.1300169165237302,"roll":0.495024651227986,"speed":0,"altitude":-3.85638427734375,"xAccel":-3.21030281484127,"longitude":174.80534886957599,"yAccel":11.399142444133799,"latitude":-41.329192151354,"date":1446263102.4024,"zAccel":-32.312238216400097,"pitch":0.166939236808163}
{"yaw":-3.1077990499629302,"roll":-0.105213318854614,"speed":0,"altitude":-3.85638427734375,"xAccel":21.190573275089299,"longitude":174.80534886957599,"yAccel":7.9729229211807304,"latitude":-41.329192151354,"date":1446263102.6266301,"zAccel":-53.407531976699801,"pitch":-0.139865787255366}
{"yaw":-2.3314940499182302,"roll":-0.113058754973298,"speed":0,"altitude":-3.85638427734375,"xAccel":11.510248482227301,"longitude":174.80534886957599,"yAccel":-13.4605795145035,"latitude":-41.329192151354,"date":1446263102.81671,"zAccel":-71.133971214294405,"pitch":-0.57105802638388004}
{"yaw":-1.3469140784521001,"roll":-0.191921582081023,"speed":0,"altitude":-3.85638427734375,"xAccel":-0.31692530028521998,"longitude":174.80534886957599,"yAccel":-6.2914691865444201,"latitude":-41.329192151354,"date":1446263102.9988,"zAccel":-6.9081328809261304,"pitch":-0.85475302701505596}
{"yaw":-1.5762444739700701,"roll":0.84120646633811502,"speed":1.8719999313354501,"altitude":-4.1129150390625,"xAccel":34.632369875907898,"longitude":174.80535725147899,"yAccel":47.649738192558303,"latitude":-41.329181715884602,"date":1446263103.2934401,"zAccel":24.7644290328026,"pitch":-1.27472614905348}
{"yaw":-2.8020733054312901,"roll":0.903802058697459,"speed":1.8719999313354501,"altitude":-4.1129150390625,"xAccel":3.2083567231893499,"longitude":174.80535725147899,"yAccel":7.2962582111358598,"latitude":-41.329181715884602,"date":1446263103.43963,"zAccel":8.3166651427745801,"pitch":-2.14236324947559}
{"yaw":-2.3098751722513602,"roll":0.88832780493616503,"speed":1.8719999313354501,"altitude":-4.1129150390625,"xAccel":10.919382423162499,"longitude":174.80535725147899,"yAccel":-1.8017794936895399,"latitude":-41.329181715884602,"date":1446263103.6080599,"zAccel":9.2378400266170502,"pitch":-1.88490791526854}
{"yaw":-0.71727990085870696,"roll":0.90525878546845695,"speed":1.8719999313354501,"altitude":-4.1129150390625,"xAccel":-16.7928576469421,"longitude":174.80535725147899,"yAccel":-6.0251530259847597,"latitude":-41.329181715884602,"date":1446263103.8315401,"zAccel":5.2615381777286503,"pitch":-1.66320479804271}
{"yaw":0.0101356292552201,"roll":1.13157651388365,"speed":1.8719999313354501,"altitude":-4.1129150390625,"xAccel":-37.963005900383003,"longitude":174.80535725147899,"yAccel":49.162268638610797,"latitude":-41.329181715884602,"date":1446263104.12501,"zAccel":-7.6404564082622501,"pitch":-1.9955266897169901}
{"yaw":0.29429375865680601,"roll":1.1148578396926101,"speed":0.75599997639656102,"altitude":-3.8790283203125,"xAccel":28.5940229892731,"longitude":174.80536085569699,"yAccel":-4.3509669601917302,"latitude":-41.329178824128,"date":1446263104.27141,"zAccel":-2.3020833730697601,"pitch":-1.7792028619150999}
{"yaw":0.74241661113336099,"roll":0.47866056845834098,"speed":0.75599997639656102,"altitude":-3.8790283203125,"xAccel":-5.8375980705022803,"longitude":174.80536085569699,"yAccel":-1.32041489705443,"latitude":-41.329178824128,"date":1446263104.50561,"zAccel":-3.68539467453957,"pitch":-1.6736193250520299}
{"yaw":1.2825721161088901,"roll":0.36007174673561798,"speed":0.75599997639656102,"altitude":-3.8790283203125,"xAccel":-9.8998345434665698,"longitude":174.80536085569699,"yAccel":75.504577159881606,"latitude":-41.329178824128,"date":1446263104.6617301,"zAccel":75.750708580017104,"pitch":-1.71818247665778}
{"yaw":1.67443046198488,"roll":0.23824824663569,"speed":0.75599997639656102,"altitude":-3.8790283203125,"xAccel":-11.5088760852814,"longitude":174.80536085569699,"yAccel":-22.299759089946701,"latitude":-41.329178824128,"date":1446263104.9202299,"zAccel":30.302974581718399,"pitch":-1.9672415575956901}
{"yaw":1.9957687548594401,"roll":0.33799364080521999,"speed":0.75599997639656102,"altitude":-3.8790283203125,"xAccel":-14.9972468614578,"longitude":174.80536085569699,"yAccel":-15.8214554190636,"latitude":-41.329178824128,"date":1446263105.1024401,"zAccel":32.215726375579798,"pitch":-1.92379695430772}
{"yaw":2.7814124520952399,"roll":0.41150642432315498,"speed":1.4039999485015899,"altitude":-3.46856689453125,"xAccel":-15.327797830104799,"longitude":174.80536169388799,"yAccel":51.011800765991197,"latitude":-41.329179494680197,"date":1446263105.2590301,"zAccel":20.5483630299568,"pitch":-1.5726372576203}
{"yaw":2.2888051157496898,"roll":-0.0192924749924154,"speed":1.4039999485015899,"altitude":-3.46856689453125,"xAccel":-24.562489986419699,"longitude":174.80536169388799,"yAccel":-13.052816689014399,"latitude":-41.329179494680197,"date":1446263105.4148099,"zAccel":-6.1214201152324703,"pitch":-1.6848227701438201}
{"yaw":0.28477865840766597,"roll":-0.40456119026130499,"speed":1.4039999485015899,"altitude":-3.46856689453125,"xAccel":-0.87277162820100795,"longitude":174.80536169388799,"yAccel":12.523469328880299,"latitude":-41.329179494680197,"date":1446263105.62234,"zAccel":-32.727289199829102,"pitch":-1.45335358226323}
{"yaw":-0.47036358796148398,"roll":-0.440419312201835,"speed":1.4039999485015899,"altitude":-3.46856689453125,"xAccel":-18.136945366859401,"longitude":174.80536169388799,"yAccel":-4.0013290941715196,"latitude":-41.329179494680197,"date":1446263105.8457699,"zAccel":-21.3715925812721,"pitch":-1.37849167439019}
{"yaw":-0.35611426886703001,"roll":-0.87205966213154595,"speed":1.4039999485015899,"altitude":-3.46856689453125,"xAccel":8.8745191693306005,"longitude":174.80536169388799,"yAccel":38.805386424064601,"latitude":-41.329179494680197,"date":1446263105.9934299,"zAccel":-33.820897340774501,"pitch":-1.5794816810055801}
{"yaw":1.25942878112801,"roll":-0.79693265790386403,"speed":0,"altitude":-3.61236572265625,"xAccel":-5.3319931030273402,"longitude":174.80536169388799,"yAccel":39.085614681243896,"latitude":-41.329179494680197,"date":1446263106.2263801,"zAccel":32.627621293067897,"pitch":-2.3164930651466298}
{"yaw":0.84369011681978301,"roll":-0.837609853050296,"speed":0,"altitude":-3.61236572265625,"xAccel":48.234191536903403,"longitude":174.80536169388799,"yAccel":3.7104927003383601,"latitude":-41.329179494680197,"date":1446263106.42608,"zAccel":4.4137250632047698,"pitch":-1.87555520433381}
{"yaw":-0.60049151667673994,"roll":-0.89621276872475797,"speed":0,"altitude":-3.61236572265625,"xAccel":91.066801548004193,"longitude":174.80536169388799,"yAccel":8.7011225521564501,"latitude":-41.329179494680197,"date":1446263106.62287,"zAccel":-54.838502407074003,"pitch":-0.81415964362123305}
{"yaw":-1.9476270280613901,"roll":-1.15823569038684,"speed":0,"altitude":-3.61236572265625,"xAccel":40.645840764045701,"longitude":174.80536169388799,"yAccel":92.209821939468398,"latitude":-41.329179494680197,"date":1446263106.9274199,"zAccel":-41.5114104747772,"pitch":0.182872938658519}
{"yaw":2.7371838274166702,"roll":-1.03694635391648,"speed":1.0439999699592599,"altitude":-3.34063720703125,"xAccel":-5.4763082414865503,"longitude":174.80536387318301,"yAccel":76.884931325912504,"latitude":-41.329182973169999,"date":1446263107.20263,"zAccel":-13.814939558506,"pitch":0.199634899345772}
{"yaw":-3.0898873667724902,"roll":-1.2195887460475801,"speed":1.0439999699592599,"altitude":-3.34063720703125,"xAccel":-7.2014592587947801,"longitude":174.80536387318301,"yAccel":-105.69258928299,"latitude":-41.329182973169999,"date":1446263107.5125599,"zAccel":-102.785861492157,"pitch":-0.92475040673986297}
{"yaw":2.5480794533329898,"roll":-0.86235964112282704,"speed":1.0439999699592599,"altitude":-3.34063720703125,"xAccel":25.661122798919699,"longitude":174.80536387318301,"yAccel":33.759897947311401,"latitude":-41.329182973169999,"date":1446263107.6719601,"zAccel":-124.829483032227,"pitch":-0.30316550157238398}
{"yaw":2.3636133922583999,"roll":-0.28960237864322302,"speed":1.0439999699592599,"altitude":-3.34063720703125,"xAccel":1.8383894115686401,"longitude":174.80536387318301,"yAccel":8.3660364151000994,"latitude":-41.329182973169999,"date":1446263107.9287,"zAccel":65.835994482040405,"pitch":-1.7036768332821199}
{"yaw":2.1982420422519402,"roll":-0.029442046548246899,"speed":1.0439999699592599,"altitude":-2.86627197265625,"xAccel":-43.718314170837402,"longitude":174.80536169388799,"yAccel":-24.329127371311198,"latitude":-41.329184984826803,"date":1446263108.2742701,"zAccel":30.8501154184341,"pitch":-0.93115353090976305}
{"yaw":2.5816345413716002,"roll":0.34324198583215398,"speed":1.0439999699592599,"altitude":-2.86627197265625,"xAccel":15.946348011493701,"longitude":174.80536169388799,"yAccel":-32.302242517471299,"latitude":-41.329184984826803,"date":1446263108.44909,"zAccel":30.332568287849401,"pitch":-1.1046058652255999}
{"yaw":2.5103713407203299,"roll":0.431979837040741,"speed":1.0439999699592599,"altitude":-2.86627197265625,"xAccel":-59.028732776641803,"longitude":174.80536169388799,"yAccel":-79.976910352706895,"latitude":-41.329184984826803,"date":1446263108.70771,"zAccel":22.9122698307037,"pitch":-1.7717877997693801}
{"yaw":-2.8755983833705101,"roll":0.59073618611605505,"speed":1.0439999699592599,"altitude":-2.86627197265625,"xAccel":-85.4755282402039,"longitude":174.80536169388799,"yAccel":-9.7345493733882904,"latitude":-41.329184984826803,"date":1446263108.92715,"zAccel":-61.2018048763275,"pitch":-1.6726408460245199}
{"yaw":-3.08177197590972,"roll":0.97709746101855799,"speed":1.0439999699592599,"altitude":-2.86627197265625,"xAccel":124.499952793121,"longitude":174.80536169388799,"yAccel":70.452892780303998,"latitude":-41.329184984826803,"date":1446263109.1282001,"zAccel":-40.058946609497099,"pitch":-0.68832921702717498}
{"yaw":2.9682595250006298,"roll":0.37476176066308697,"speed":0,"altitude":-3.716796875,"xAccel":20.688641071319601,"longitude":174.80536169388799,"yAccel":114.713764190674,"latitude":-41.329184984826803,"date":1446263109.3176401,"zAccel":39.6603167057037,"pitch":-1.04108101088887}
{"yaw":2.8825318380413898,"roll":-0.072580075182732906,"speed":0,"altitude":-3.716796875,"xAccel":-25.728505849838299,"longitude":174.80536169388799,"yAccel":98.929065465927096,"latitude":-41.329184984826803,"date":1446263109.4877601,"zAccel":27.1859258413315,"pitch":-1.07554039482907}
{"yaw":2.66646270962136,"roll":-0.28948986456924902,"speed":0,"altitude":-3.716796875,"xAccel":-25.143626332282999,"longitude":174.80536169388799,"yAccel":57.970941066741901,"latitude":-41.329184984826803,"date":1446263109.69472,"zAccel":2.35296823084354,"pitch":-0.63692484794523596}
{"yaw":2.7851372879677698,"roll":0.119842928627308,"speed":0,"altitude":-3.716796875,"xAccel":42.439636588096597,"longitude":174.80536169388799,"yAccel":-30.916345119476301,"latitude":-41.329184984826803,"date":1446263109.93133,"zAccel":-157.67283439636199,"pitch":0.710496380962512}
{"yaw":2.96540374096947,"roll":0.153289499531572,"speed":0.97200003862381001,"altitude":-3.1820068359375,"xAccel":37.464421987533598,"longitude":174.805370243429,"yAccel":30.1525235176086,"latitude":-41.329173585438497,"date":1446263110.1115699,"zAccel":-0.99988738074898698,"pitch":1.2953332983500301}
{"yaw":2.9153791321054601,"roll":0.14622598177624399,"speed":0.97200003862381001,"altitude":-3.1820068359375,"xAccel":160.066151618958,"longitude":174.805370243429,"yAccel":-161.537981033325,"latitude":-41.329173585438497,"date":1446263110.3039801,"zAccel":-83.331948518753094,"pitch":1.2006059160082101}
{"yaw":2.9535310649184399,"roll":0.092472176648889501,"speed":0.97200003862381001,"altitude":-3.1820068359375,"xAccel":3.7759754806757,"longitude":174.805370243429,"yAccel":119.301545619965,"latitude":-41.329173585438497,"date":1446263110.61941,"zAccel":55.610495805740399,"pitch":1.1105084632383599}
{"yaw":3.0684407680095802,"roll":0.22910866723505999,"speed":0.97200003862381001,"altitude":-3.1820068359375,"xAccel":28.6420494318008,"longitude":174.805370243429,"yAccel":0.58173416182398796,"latitude":-41.329173585438497,"date":1446263110.9180801,"zAccel":4.9867488443851498,"pitch":1.10035517886823}
{"yaw":-3.06755029931429,"roll":0.20113851809568001,"speed":0.97200003862381001,"altitude":-3.1820068359375,"xAccel":-14.350721240043599,"longitude":174.805370243429,"yAccel":45.089390873908997,"latitude":-41.329173585438497,"date":1446263111.10028,"zAccel":-18.191595375537901,"pitch":1.5832697359158701}
{"yaw":-2.9686426093352498,"roll":0.143496553468446,"speed":1.08000004291534,"altitude":-3.0313720703125,"xAccel":-3.2852947711944598,"longitude":174.80537141689501,"yAccel":19.697380065918001,"latitude":-41.329170526043796,"date":1446263111.32847,"zAccel":-12.6151442527771,"pitch":1.60247696862586}
{"yaw":-2.8068014513498798,"roll":0.166836526870179,"speed":1.08000004291534,"altitude":-3.0313720703125,"xAccel":33.5771888494492,"longitude":174.80537141689501,"yAccel":-0.67460318095982097,"latitude":-41.329170526043796,"date":1446263111.61938,"zAccel":-2.3806624114513402,"pitch":1.7767774264859699}
{"yaw":-2.88996052444304,"roll":0.16641292157939799,"speed":1.08000004291534,"altitude":-3.0313720703125,"xAccel":22.9122459888458,"longitude":174.80537141689501,"yAccel":-2.36155968159437,"latitude":-41.329170526043796,"date":1446263111.74876,"zAccel":9.4449736177921295,"pitch":1.7775379003938601}
{"yaw":-2.9277580916469201,"roll":0.17071679533096801,"speed":1.08000004291534,"altitude":-3.0313720703125,"xAccel":8.0258637666702306,"longitude":174.80537141689501,"yAccel":26.114106178283699,"latitude":-41.329170526043796,"date":1446263112.0092599,"zAccel":1.44976237788796,"pitch":1.44526609794173}
{"yaw":-3.0137447396115098,"roll":0.14102850089934599,"speed":0,"altitude":-3.39508056640625,"xAccel":13.2214918732643,"longitude":174.80537141689501,"yAccel":-7.7591367065906498,"latitude":-41.329170526043796,"date":1446263112.29352,"zAccel":5.5289957672357604,"pitch":1.5185957143700199}
{"yaw":-3.0209329514917602,"roll":0.14249910271924399,"speed":0,"altitude":-3.39508056640625,"xAccel":26.973339915275599,"longitude":174.80537141689501,"yAccel":38.005056977271998,"latitude":-41.329170526043796,"date":1446263112.4749,"zAccel":12.461594492196999,"pitch":1.5097739783726001}
{"yaw":-2.9751565452924398,"roll":0.14487279359715299,"speed":0,"altitude":-3.39508056640625,"xAccel":14.999705553054801,"longitude":174.80537141689501,"yAccel":-7.5502663850784302,"latitude":-41.329170526043796,"date":1446263112.8132501,"zAccel":-9.8199546337127703,"pitch":1.6224835225024901}
{"yaw":-2.9575032785533999,"roll":0.110276995858751,"speed":0,"altitude":-3.39508056640625,"xAccel":7.9886995255947104,"longitude":174.80537141689501,"yAccel":-3.0903492122888601,"latitude":-41.329170526043796,"date":1446263113.0213799,"zAccel":1.05605088174343,"pitch":1.7335873435278899}
{"yaw":-2.9694372880086002,"roll":0.053147935104513801,"speed":0,"altitude":-3.39508056640625,"xAccel":4.6378534287214297,"longitude":174.80537141689501,"yAccel":0.78798867762088798,"latitude":-41.329170526043796,"date":1446263113.2019701,"zAccel":-0.58099790476262603,"pitch":1.79244907706374}
{"yaw":-2.9643557077479499,"roll":0.0034335133921762299,"speed":0,"altitude":-3.24285888671875,"xAccel":-6.2255579978227598,"longitude":174.80537141689501,"yAccel":-2.20932625234127,"latitude":-41.329170526043796,"date":1446263113.4932899,"zAccel":-10.362342000007599,"pitch":1.6826471173812101}
{"yaw":-2.90684570959169,"roll":-0.0157824160425117,"speed":0,"altitude":-3.24285888671875,"xAccel":3.20698022842407,"longitude":174.80537141689501,"yAccel":8.69268551468849,"latitude":-41.329170526043796,"date":1446263113.6967599,"zAccel":-5.6123342365026501,"pitch":1.5708100710531001}
{"yaw":-2.8780146336206598,"roll":0.026699598709057901,"speed":0,"altitude":-3.24285888671875,"xAccel":-6.2277574092149699,"longitude":174.80537141689501,"yAccel":1.1339819990098501,"latitude":-41.329170526043796,"date":1446263113.93155,"zAccel":5.1013469696044904,"pitch":1.4723083565649999}
{"yaw":-2.8639211858162499,"roll":0.025347029767395699,"speed":0,"altitude":-3.24285888671875,"xAccel":-5.0324019044637698,"longitude":174.80537141689501,"yAccel":-1.9717227667570101,"latitude":-41.329170526043796,"date":1446263114.23314,"zAccel":-2.9694672673940699,"pitch":1.3782156442917}
{"yaw":-2.8712419121482302,"roll":0.038958010861861597,"speed":0,"altitude":-3.21270751953125,"xAccel":-1.53120970353484,"longitude":174.80537141689501,"yAccel":6.6467039287090302,"latitude":-41.329170526043796,"date":1446263114.61146,"zAccel":6.8336203694343602,"pitch":1.33000612385316}
{"yaw":-3.12353495857317,"roll":0.14955287659473401,"speed":0,"altitude":-3.21270751953125,"xAccel":-3.3987384289503102,"longitude":174.80537141689501,"yAccel":-0.62977918423712298,"latitude":-41.329170526043796,"date":1446263114.8940599,"zAccel":5.2454113960266104,"pitch":1.32088417713161}
{"yaw":3.1164708065394802,"roll":0.14545344425460699,"speed":0,"altitude":-3.21270751953125,"xAccel":6.9822080433368701,"longitude":174.80537141689501,"yAccel":3.00837364047766,"latitude":-41.329170526043796,"date":1446263115.1048999,"zAccel":-8.4930695593357104,"pitch":1.36363918750892}
{"yaw":3.1052683259314899,"roll":0.16671236721680299,"speed":0,"altitude":-3.6051025390625,"xAccel":1.36890029534698,"longitude":174.80537141689501,"yAccel":-3.67012955248356,"latitude":-41.329170526043796,"date":1446263115.38849,"zAccel":0.051067263120785397,"pitch":1.3849690406008801}
{"yaw":3.0936112668979301,"roll":0.086237679760747005,"speed":0,"altitude":-3.6051025390625,"xAccel":10.1832121610641,"longitude":174.80537141689501,"yAccel":-12.5319302082062,"latitude":-41.329170526043796,"date":1446263115.62433,"zAccel":14.2207264900208,"pitch":1.3834588310115199}
{"yaw":3.1224912771991402,"roll":0.118176740662602,"speed":0,"altitude":-3.6051025390625,"xAccel":6.5609991550445601,"longitude":174.80537141689501,"yAccel":-5.6422561407089198,"latitude":-41.329170526043796,"date":1446263115.9093001,"zAccel":-3.76319251954556,"pitch":1.36191318638673}
{"yaw":3.1280564672162101,"roll":0.16674811293691,"speed":0,"altitude":-3.6051025390625,"xAccel":-6.8627431988716099,"longitude":174.80537141689501,"yAccel":2.08707079291344,"latitude":-41.329170526043796,"date":1446263116.22139,"zAccel":-5.1736582070589101,"pitch":1.27946589699013}
{"yaw":3.1322526652045801,"roll":0.114940818446788,"speed":0,"altitude":-3.6051025390625,"xAccel":9.1677643358707392,"longitude":174.80537141689501,"yAccel":4.1323628276586497,"latitude":-41.329170526043796,"date":1446263116.50647,"zAccel":-0.359129114076495,"pitch":1.2918570761263899}
{"yaw":-3.1246119017896401,"roll":0.106783533981771,"speed":0,"altitude":-3.6051025390625,"xAccel":3.2056786119937901,"longitude":174.80537141689501,"yAccel":-6.3547790050506601,"latitude":-41.329170526043796,"date":1446263116.72315,"zAccel":1.13951787352562,"pitch":1.29602798669856}
{"yaw":-3.0689363244691399,"roll":0.137911871009848,"speed":0,"altitude":-3.6051025390625,"xAccel":0.11836092453450001,"longitude":174.80537141689501,"yAccel":7.46919065713882,"latitude":-41.329170526043796,"date":1446263117.02876,"zAccel":0.39105904288589999,"pitch":1.30352574841111}
{"yaw":-3.04484988449701,"roll":0.15020801293962999,"speed":0,"altitude":-3.59649658203125,"xAccel":-2.6702018454670902,"longitude":174.80537141689501,"yAccel":-1.9275402650237099,"latitude":-41.329170526043796,"date":1446263117.20894,"zAccel":0.33082887530326799,"pitch":1.2914244991267301}
{"yaw":-3.04484988449701,"roll":0.15020801293962999,"speed":0,"altitude":-3.59649658203125,"xAccel":-2.6702018454670902,"longitude":174.80537141689501,"yAccel":-1.9275402650237099,"latitude":-41.329170526043796,"date":1446263117.25933,"zAccel":0.33082887530326799,"pitch":1.2914244991267301}
{"yaw":-3.0111224630663398,"roll":0.180924195580762,"speed":0,"altitude":-3.59649658203125,"xAccel":2.7732340618968001,"longitude":174.80537141689501,"yAccel":2.1478042006492601,"latitude":-41.329170526043796,"date":1446263117.39324,"zAccel":1.02988192811608,"pitch":1.2791808346915801}
{"yaw":-3.0111224630663398,"roll":0.180924195580762,"speed":0,"altitude":-3.59649658203125,"xAccel":2.7732340618968001,"longitude":174.80537141689501,"yAccel":2.1478042006492601,"latitude":-41.329170526043796,"date":1446263117.4677999,"zAccel":1.02988192811608,"pitch":1.2791808346915801}
{"yaw":-2.9864764888595001,"roll":0.198720420691685,"speed":0,"altitude":-3.59649658203125,"xAccel":-13.5455384850502,"longitude":174.80537141689501,"yAccel":-7.6990760862827301,"latitude":-41.329170526043796,"date":1446263117.5456901,"zAccel":5.0895400345325497,"pitch":1.2718803719934999}
{"yaw":-3.0113939051250802,"roll":0.20131068935905799,"speed":0,"altitude":-3.59649658203125,"xAccel":3.1878162175416902,"longitude":174.80537141689501,"yAccel":-0.279153720475733,"latitude":-41.329170526043796,"date":1446263117.7112999,"zAccel":7.9459190368652299,"pitch":1.2574098220804699}
{"yaw":-3.0113939051250802,"roll":0.20131068935905799,"speed":0,"altitude":-3.59649658203125,"xAccel":3.1878162175416902,"longitude":174.80537141689501,"yAccel":-0.279153720475733,"latitude":-41.329170526043796,"date":1446263117.7542601,"zAccel":7.9459190368652299,"pitch":1.2574098220804699}
{"yaw":-3.0301174978393899,"roll":0.183631616199602,"speed":0,"altitude":-3.59649658203125,"xAccel":2.3955697193741798,"longitude":174.80537141689501,"yAccel":0.0063282743212766902,"latitude":-41.329170526043796,"date":1446263117.8585899,"zAccel":-3.6766562610864599,"pitch":1.26020404185499}
{"yaw":-3.0429934099736902,"roll":0.177071433186587,"speed":0,"altitude":-3.59649658203125,"xAccel":6.8634130060672804,"longitude":174.80537141689501,"yAccel":2.27464605122805,"latitude":-41.329170526043796,"date":1446263117.9997301,"zAccel":5.0016473978757903,"pitch":1.27315247129886}
{"yaw":-3.06779495924172,"roll":0.173288919345638,"speed":0,"altitude":-3.59649658203125,"xAccel":-0.334305409342051,"longitude":174.80537141689501,"yAccel":-1.7812820151448201,"latitude":-41.329170526043796,"date":1446263118.09482,"zAccel":3.6821410059928898,"pitch":1.2909755585770299}
{"yaw":-3.0775677079519599,"roll":0.17472783795004401,"speed":0,"altitude":-3.19927978515625,"xAccel":-11.8167318403721,"longitude":174.80537141689501,"yAccel":-5.3040508180856696,"latitude":-41.329170526043796,"date":1446263118.22177,"zAccel":-1.4707287773490001,"pitch":1.2872414545745099}
{"yaw":-3.1087802258154098,"roll":0.19312754534434901,"speed":0,"altitude":-3.19927978515625,"xAccel":-16.968880593776699,"longitude":174.80537141689501,"yAccel":1.53921954333782,"latitude":-41.329170526043796,"date":1446263118.3336599,"zAccel":9.3392625451088005,"pitch":1.26691622357393}
{"yaw":3.0890040649919901,"roll":0.26403539231454198,"speed":0,"altitude":-3.19927978515625,"xAccel":-18.2747378945351,"longitude":174.80537141689501,"yAccel":16.485509276390101,"latitude":-41.329170526043796,"date":1446263118.52127,"zAccel":4.2842585593461999,"pitch":1.3223898697548699}
{"yaw":2.9667923166882599,"roll":0.26321972394693299,"speed":0,"altitude":-3.19927978515625,"xAccel":-8.3727121353149396,"longitude":174.80537141689501,"yAccel":-8.3875663578510302,"latitude":-41.329170526043796,"date":1446263118.7256,"zAccel":-8.3653710782527906,"pitch":1.3907712622124999}
{"yaw":2.9591807109007702,"roll":0.215282930528642,"speed":0,"altitude":-3.19927978515625,"xAccel":-9.5687076449394208,"longitude":174.80537141689501,"yAccel":-1.7261533066630399,"latitude":-41.329170526043796,"date":1446263118.9247,"zAccel":1.7328651621937801,"pitch":1.4167219226308601}
{"yaw":2.9861353349933002,"roll":0.119257932203747,"speed":0,"altitude":-3.2335205078125,"xAccel":6.15871362388134,"longitude":174.80537141689501,"yAccel":-18.421745300293001,"latitude":-41.329170526043796,"date":1446263119.1138999,"zAccel":-5.9893921017646798,"pitch":1.44670144830537}
{"yaw":2.9861353349933002,"roll":0.119257932203747,"speed":0,"altitude":-3.2335205078125,"xAccel":6.15871362388134,"longitude":174.80537141689501,"yAccel":-18.421745300293001,"latitude":-41.329170526043796,"date":1446263119.1399,"zAccel":-5.9893921017646798,"pitch":1.44670144830537}
{"yaw":3.0463629383981901,"roll":0.11026054609359399,"speed":0,"altitude":-3.2335205078125,"xAccel":10.246890783309899,"longitude":174.80537141689501,"yAccel":2.07927189767361,"latitude":-41.329170526043796,"date":1446263119.26916,"zAccel":2.1038811653852498,"pitch":1.46168503842574}
{"yaw":3.1118714365134501,"roll":0.12037308572852,"speed":0,"altitude":-3.2335205078125,"xAccel":7.4153646826744097,"longitude":174.80537141689501,"yAccel":-7.0710554718971297,"latitude":-41.329170526043796,"date":1446263119.3699901,"zAccel":-1.51931857690215,"pitch":1.4745900390969}
{"yaw":-2.9679466198155402,"roll":0.11222325396527601,"speed":0,"altitude":-3.2335205078125,"xAccel":3.66246849298477,"longitude":174.80537141689501,"yAccel":-2.47312411665916,"latitude":-41.329170526043796,"date":1446263119.54671,"zAccel":-4.5253321528434798,"pitch":1.4602471526369301}
{"yaw":-2.7835280014077699,"roll":0.10736539949511099,"speed":0,"altitude":-3.2335205078125,"xAccel":-16.887225210666699,"longitude":174.80537141689501,"yAccel":-2.1599786356091499,"latitude":-41.329170526043796,"date":1446263119.7274001,"zAccel":0.79006338492035899,"pitch":1.4833099470769899}
{"yaw":-2.67252288522478,"roll":0.054828992979977301,"speed":0,"altitude":-3.2335205078125,"xAccel":6.8046152591705296,"longitude":174.80537141689501,"yAccel":5.1405843347311002,"latitude":-41.329170526043796,"date":1446263119.9232099,"zAccel":3.8422666490077999,"pitch":1.4837802611295601}
{"yaw":-2.6388869377658999,"roll":0.021856457787301501,"speed":0,"altitude":-3.2335205078125,"xAccel":-4.7725360840558997,"longitude":174.80537141689501,"yAccel":-8.3472713828086906,"latitude":-41.329170526043796,"date":1446263120.0926199,"zAccel":-2.1025311201810801,"pitch":1.46435494181373}
{"yaw":-2.6275844255487901,"roll":-0.035830096600553502,"speed":0,"altitude":-2.380859375,"xAccel":9.6883259713649696,"longitude":174.80537141689501,"yAccel":2.1022005006671001,"latitude":-41.329170526043796,"date":1446263120.25755,"zAccel":-3.4275110810995102,"pitch":1.40033409853409}
{"yaw":-2.6164399588707599,"roll":-0.024499964667538902,"speed":0,"altitude":-2.380859375,"xAccel":5.0682540982961699,"longitude":174.80537141689501,"yAccel":-4.0848668664693797,"latitude":-41.329170526043796,"date":1446263120.4030299,"zAccel":9.5076426863670296,"pitch":1.3584619401440099}
{"yaw":-2.60779992561074,"roll":0.0031835937009419201,"speed":0,"altitude":-2.380859375,"xAccel":-30.899599194526701,"longitude":174.80537141689501,"yAccel":-30.4430603981018,"latitude":-41.329170526043796,"date":1446263120.44295,"zAccel":8.0397859215736407,"pitch":1.3266305559185101}
{"yaw":-2.6302517589994299,"roll":-0.0064758461070478198,"speed":0,"altitude":-2.380859375,"xAccel":-7.4285857379436502,"longitude":174.80537141689501,"yAccel":-4.1780360043048903,"latitude":-41.329170526043796,"date":1446263120.56282,"zAccel":9.9868386983871495,"pitch":1.33167167083977}
{"yaw":-2.69236310354714,"roll":0.0034459569860370099,"speed":0,"altitude":-2.380859375,"xAccel":-7.7990204095840499,"longitude":174.80537141689501,"yAccel":5.0258558243513098,"latitude":-41.329170526043796,"date":1446263120.7223899,"zAccel":8.6759969592094404,"pitch":1.39113308784204}
{"yaw":-2.7533057898186,"roll":0.0130263779283795,"speed":0,"altitude":-2.380859375,"xAccel":1.4918099157512199,"longitude":174.80537141689501,"yAccel":4.0920622646808598,"latitude":-41.329170526043796,"date":1446263120.84356,"zAccel":-3.2421037554740901,"pitch":1.4148054466567499}
{"yaw":-2.8630323526002899,"roll":0.00504722021462411,"speed":0,"altitude":-2.380859375,"xAccel":2.4044390767812698,"longitude":174.80537141689501,"yAccel":-5.0336077809333801,"latitude":-41.329170526043796,"date":1446263120.9990799,"zAccel":-3.1006956472992901,"pitch":1.41263340686739}
{"yaw":-2.9669876835057001,"roll":-0.015125217020356499,"speed":0,"altitude":-2.380859375,"xAccel":-9.0777717530727404,"longitude":174.80537141689501,"yAccel":-0.098554114811122404,"latitude":-41.329170526043796,"date":1446263121.03373,"zAccel":-14.550769329071001,"pitch":1.41107289327375}
{"yaw":-3.0929256310904001,"roll":-0.033676853840498101,"speed":0,"altitude":-2.62982177734375,"xAccel":4.8360761255025899,"longitude":174.80537141689501,"yAccel":-9.16363373398781,"latitude":-41.329170526043796,"date":1446263121.22404,"zAccel":0.48095611855387699,"pitch":1.3717435351895899}
{"yaw":-3.0982295392349699,"roll":-0.037934625265380599,"speed":0,"altitude":-2.62982177734375,"xAccel":4.0123179554939297,"longitude":174.80537141689501,"yAccel":-0.124829902779311,"latitude":-41.329170526043796,"date":1446263121.34396,"zAccel":0.13969280989840599,"pitch":1.3491085892421599}
{"yaw":-3.1059925423468702,"roll":-0.0104055899036141,"speed":0,"altitude":-2.62982177734375,"xAccel":-15.354810655116999,"longitude":174.80537141689501,"yAccel":-21.644259989261599,"latitude":-41.329170526043796,"date":1446263121.5965199,"zAccel":-12.9815980792046,"pitch":1.30587437896839}
{"yaw":-3.1340545673676798,"roll":-0.060989015876957799,"speed":0,"altitude":-2.62982177734375,"xAccel":1.0795612819492799,"longitude":174.80537141689501,"yAccel":3.16732637584209,"latitude":-41.329170526043796,"date":1446263121.7348399,"zAccel":1.05766570195556,"pitch":1.28348298161973}
{"yaw":3.0584504337404299,"roll":-0.123931337574102,"speed":0,"altitude":-2.62982177734375,"xAccel":1.6034100204706201,"longitude":174.80537141689501,"yAccel":0.34044680651277298,"latitude":-41.329170526043796,"date":1446263121.9084599,"zAccel":-0.44005005620420001,"pitch":1.29004337976023}
{"yaw":2.9602620027470801,"roll":-0.18837936397274499,"speed":2.7359999656677201,"altitude":-2.79364013671875,"xAccel":24.892057478427901,"longitude":174.805374350562,"yAccel":8.7875656783580798,"latitude":-41.329167801925301,"date":1446263122.12289,"zAccel":-0.85855331271886803,"pitch":1.31562040486439}
{"yaw":2.9691585374869698,"roll":-0.190155224372453,"speed":2.7359999656677201,"altitude":-2.79364013671875,"xAccel":13.4719148278236,"longitude":174.805374350562,"yAccel":-4.3510831892490396,"latitude":-41.329167801925301,"date":1446263122.27319,"zAccel":-4.00460436940193,"pitch":1.3557558292173499}
{"yaw":2.9791355319383301,"roll":-0.17125090046052299,"speed":2.7359999656677201,"altitude":-2.79364013671875,"xAccel":11.1887767910957,"longitude":174.805374350562,"yAccel":10.8410514891148,"latitude":-41.329167801925301,"date":1446263122.3513601,"zAccel":-5.0569195300340697,"pitch":1.3862481251121499}
{"yaw":2.9581593387834699,"roll":-0.125856924245248,"speed":2.7359999656677201,"altitude":-2.79364013671875,"xAccel":-1.28692863509059,"longitude":174.805374350562,"yAccel":8.3876587450504303,"latitude":-41.329167801925301,"date":1446263122.5072601,"zAccel":-3.7187676876783402,"pitch":1.4321728693075999}
{"yaw":2.9604076712855099,"roll":-0.120927062578306,"speed":2.7359999656677201,"altitude":-2.79364013671875,"xAccel":-2.32662186026573,"longitude":174.805374350562,"yAccel":-4.32292968034744,"latitude":-41.329167801925301,"date":1446263122.7305,"zAccel":6.3815116882324201,"pitch":1.4789048267659299}
{"yaw":2.9362316647410802,"roll":-0.115096660797519,"speed":2.7359999656677201,"altitude":-2.79364013671875,"xAccel":1.19883446022868,"longitude":174.805374350562,"yAccel":4.7479417175054603,"latitude":-41.329167801925301,"date":1446263122.9228799,"zAccel":-2.5268826633691801,"pitch":1.4847637827934299}
{"yaw":2.93700346617018,"roll":-0.114391037278732,"speed":2.7359999656677201,"altitude":-2.79364013671875,"xAccel":6.4538694918155697,"longitude":174.805374350562,"yAccel":-0.136183178983629,"latitude":-41.329167801925301,"date":1446263123.1073501,"zAccel":5.1062460988760003,"pitch":1.4962265026503501}
{"yaw":2.9928258600253299,"roll":-0.088548850240183496,"speed":1.94400007724762,"altitude":-3.4739990234375,"xAccel":-1.08880121260881,"longitude":174.805378625332,"yAccel":3.9802670478820801,"latitude":-41.329168682025099,"date":1446263123.3108499,"zAccel":-3.60974408686161,"pitch":1.5219914292554799}
{"yaw":3.06658281608905,"roll":-0.051134273689044198,"speed":1.94400007724762,"altitude":-3.4739990234375,"xAccel":2.84320749342442,"longitude":174.805378625332,"yAccel":-1.7564689740538599,"latitude":-41.329168682025099,"date":1446263123.4931901,"zAccel":1.0316274128854299,"pitch":1.5182145017855699}
{"yaw":-3.1015252328030201,"roll":-0.025014780448596698,"speed":1.94400007724762,"altitude":-3.4739990234375,"xAccel":9.1900669038295693,"longitude":174.805378625332,"yAccel":-3.4027989953756301,"latitude":-41.329168682025099,"date":1446263123.7005899,"zAccel":-1.4369901269674299,"pitch":1.48089888465797}
{"yaw":-2.9606264320226501,"roll":0.021842314219086601,"speed":1.94400007724762,"altitude":-3.4739990234375,"xAccel":-5.2225586026907003,"longitude":174.805378625332,"yAccel":4.3643120676279104,"latitude":-41.329168682025099,"date":1446263123.9235499,"zAccel":-4.9532938748598099,"pitch":1.49048779121542}
{"yaw":-2.8873119588285601,"roll":0.034652436107027097,"speed":1.94400007724762,"altitude":-3.4739990234375,"xAccel":-1.8485601991414999,"longitude":174.805378625332,"yAccel":2.1531580016017,"latitude":-41.329168682025099,"date":1446263124.1159301,"zAccel":-0.59740114957094204,"pitch":1.5387813950282001}
{"yaw":-2.7972977851036398,"roll":0.040965112238729902,"speed":2.0160000085830698,"altitude":-3.93572998046875,"xAccel":-4.0848713368177396,"longitude":174.80537778714199,"yAccel":-0.13487082906067399,"latitude":-41.329170526043796,"date":1446263124.29725,"zAccel":2.23736334592104,"pitch":1.6405873517334799}
{"yaw":-2.79265205684352,"roll":0.046507066953116197,"speed":2.0160000085830698,"altitude":-3.93572998046875,"xAccel":9.5944039523601496,"longitude":174.80537778714199,"yAccel":3.9321798831224402,"latitude":-41.329170526043796,"date":1446263124.50418,"zAccel":-9.3494676053524,"pitch":1.6125823689675101}
{"yaw":-2.7849718781089501,"roll":0.052937390190624503,"speed":2.0160000085830698,"altitude":-3.93572998046875,"xAccel":1.16071263328195,"longitude":174.80537778714199,"yAccel":-3.1664628535509101,"latitude":-41.329170526043796,"date":1446263124.63411,"zAccel":-6.4137391746044203,"pitch":1.59808543055816}
{"yaw":-2.60235600014011,"roll":0.063133584061911899,"speed":2.0160000085830698,"altitude":-3.93572998046875,"xAccel":7.7556982636451703,"longitude":174.80537778714199,"yAccel":3.05981785058975,"latitude":-41.329170526043796,"date":1446263124.73823,"zAccel":-14.8417487740517,"pitch":1.6111144779422599}
{"yaw":-2.4994457845717499,"roll":0.099960889634267594,"speed":2.0160000085830698,"altitude":-3.93572998046875,"xAccel":-20.422160625457799,"longitude":174.80537778714199,"yAccel":-5.8413315564393997,"latitude":-41.329170526043796,"date":1446263124.91944,"zAccel":14.0885710716248,"pitch":1.60449576196692}
{"yaw":-2.3485205300053198,"roll":0.23777322943154,"speed":2.0160000085830698,"altitude":-3.93572998046875,"xAccel":0.0858916318975389,"longitude":174.80537778714199,"yAccel":2.7402468025684401,"latitude":-41.329170526043796,"date":1446263125.07552,"zAccel":1.2296129949390899,"pitch":1.5972522725949501}
{"yaw":-2.0732579162120901,"roll":0.32254886102460301,"speed":1.94400007724762,"altitude":-4.1480712890625,"xAccel":5.6303851306438402,"longitude":174.805367309763,"yAccel":8.4839068353176099,"latitude":-41.329169268758299,"date":1446263125.2651,"zAccel":-7.2519078850746199,"pitch":1.6412801394615}
{"yaw":-1.87817918936996,"roll":0.32002852131703302,"speed":1.94400007724762,"altitude":-4.1480712890625,"xAccel":-3.0132928863167798,"longitude":174.805367309763,"yAccel":8.2827091217040998,"latitude":-41.329169268758299,"date":1446263125.49353,"zAccel":11.602059006691,"pitch":1.62318491636228}
{"yaw":-1.8524198678310899,"roll":0.29873325760650898,"speed":1.94400007724762,"altitude":-4.1480712890625,"xAccel":11.704844981432,"longitude":174.805367309763,"yAccel":-2.4741237983107598,"latitude":-41.329169268758299,"date":1446263125.70014,"zAccel":-1.9226502627134301,"pitch":1.54561496483184}
{"yaw":-1.8556447766612501,"roll":0.24828440666204599,"speed":1.94400007724762,"altitude":-4.1480712890625,"xAccel":-7.3045283555984497,"longitude":174.805367309763,"yAccel":-10.5268120765686,"latitude":-41.329169268758299,"date":1446263125.92433,"zAccel":-1.60088278353214,"pitch":1.49217861465165}
{"yaw":-1.9060219764055599,"roll":0.21973814418832899,"speed":1.94400007724762,"altitude":-3.7601318359375,"xAccel":-6.5580002963542903,"longitude":174.805361358612,"yAccel":5.0140585750341398,"latitude":-41.3291673828301,"date":1446263126.0932901,"zAccel":-2.2128267213702202,"pitch":1.4679229486941801}
{"yaw":-1.9796364871549399,"roll":0.15466849419409701,"speed":1.94400007724762,"altitude":-3.7601318359375,"xAccel":8.4716618061065692,"longitude":174.805361358612,"yAccel":-9.3987420201301592,"latitude":-41.3291673828301,"date":1446263126.24633,"zAccel":4.8434678465127901,"pitch":1.4450548308438}
{"yaw":-1.9857955922028001,"roll":0.075212932708517394,"speed":1.94400007724762,"altitude":-3.7601318359375,"xAccel":0.463117565959692,"longitude":174.805361358612,"yAccel":-7.1561656892299697,"latitude":-41.3291673828301,"date":1446263126.50664,"zAccel":4.3239124119281804,"pitch":1.39339981733184}
{"yaw":-1.9642169103268099,"roll":0.025927173992941401,"speed":1.94400007724762,"altitude":-3.7601318359375,"xAccel":-7.0770673453807804,"longitude":174.805361358612,"yAccel":4.5457210391759899,"latitude":-41.3291673828301,"date":1446263126.69329,"zAccel":-3.4052491188049299,"pitch":1.32035130030731}
{"yaw":-1.9411167332980399,"roll":-0.065156616963629205,"speed":1.94400007724762,"altitude":-3.7601318359375,"xAccel":0.88335676118731499,"longitude":174.805361358612,"yAccel":-10.2342873811722,"latitude":-41.3291673828301,"date":1446263126.9221699,"zAccel":0.12588202953338601,"pitch":1.26231167507098}
{"yaw":-1.8643928528673901,"roll":-0.014638398616845299,"speed":1.65600003004074,"altitude":-4.1485595703125,"xAccel":17.479999363422401,"longitude":174.80535046213799,"yAccel":27.1482110023499,"latitude":-41.329168640115597,"date":1446263127.0785601,"zAccel":0.70126522332429897,"pitch":1.3250891832970599}
{"yaw":-1.8699590775762001,"roll":0.33726454516431498,"speed":1.65600003004074,"altitude":-4.1485595703125,"xAccel":-8.26824903488159,"longitude":174.80535046213799,"yAccel":8.8810585439205205,"latitude":-41.329168640115597,"date":1446263127.2932999,"zAccel":-15.6719401478767,"pitch":1.5104342268194599}
{"yaw":-2.3189162121320299,"roll":0.429234500680299,"speed":1.65600003004074,"altitude":-4.1485595703125,"xAccel":-15.178777277469599,"longitude":174.80535046213799,"yAccel":14.6144866943359,"latitude":-41.329168640115597,"date":1446263127.53052,"zAccel":-6.9768466055393201,"pitch":1.12023027578422}
{"yaw":-2.5410703265200798,"roll":0.30842370054339902,"speed":1.65600003004074,"altitude":-4.1485595703125,"xAccel":-8.3298981189727801,"longitude":174.80535046213799,"yAccel":-8.8593482971191406,"latitude":-41.329168640115597,"date":1446263127.6334701,"zAccel":-60.654824972152703,"pitch":0.76314698841384399}
{"yaw":-2.6938380527330001,"roll":0.0065774383685357797,"speed":1.65600003004074,"altitude":-4.1485595703125,"xAccel":18.652428686618801,"longitude":174.80535046213799,"yAccel":12.9522055387497,"latitude":-41.329168640115597,"date":1446263127.7546799,"zAccel":33.183449506759601,"pitch":0.350644841499688}
{"yaw":-2.6628392658783002,"roll":0.0065347439782693501,"speed":1.65600003004074,"altitude":-4.1485595703125,"xAccel":14.4764065742493,"longitude":174.80535046213799,"yAccel":-5.7097695767879504,"latitude":-41.329168640115597,"date":1446263127.8934,"zAccel":25.443401932716402,"pitch":0.27900285430591498}
{"yaw":-2.64306065356682,"roll":0.055412582409248901,"speed":1.5480000257492099,"altitude":-4.107666015625,"xAccel":-16.028349101543402,"longitude":174.805349623947,"yAccel":-3.6834657192230198,"latitude":-41.329172160514901,"date":1446263128.1257901,"zAccel":7.6900348067283604,"pitch":0.31005403001591098}
{"yaw":-2.62560073551054,"roll":0.093292608988281706,"speed":1.5480000257492099,"altitude":-4.107666015625,"xAccel":-5.3693246096372604,"longitude":174.805349623947,"yAccel":0.35024539101868901,"latitude":-41.329172160514901,"date":1446263128.2569599,"zAccel":-12.657077610492699,"pitch":0.33316714015390497}
{"yaw":-2.5669128878929199,"roll":0.090071189052046197,"speed":1.5480000257492099,"altitude":-4.107666015625,"xAccel":0.038035810575820499,"longitude":174.805349623947,"yAccel":-2.08475980907679,"latitude":-41.329172160514901,"date":1446263128.5077901,"zAccel":4.2679987847804997,"pitch":0.36972016262604801}
{"yaw":-2.5323030359933698,"roll":0.091584118799120207,"speed":1.5480000257492099,"altitude":-4.107666015625,"xAccel":-10.1933747529984,"longitude":174.805349623947,"yAccel":-3.54290567338467,"latitude":-41.329172160514901,"date":1446263128.6363699,"zAccel":-5.3306266665458697,"pitch":0.38494423127386601}
{"yaw":-2.47063690382137,"roll":0.0124699622942982,"speed":1.5480000257492099,"altitude":-4.107666015625,"xAccel":-1.4736781828105401,"longitude":174.805349623947,"yAccel":-1.2758239172399,"latitude":-41.329172160514901,"date":1446263128.7934,"zAccel":-7.1004532277584103,"pitch":0.39703521577204898}
{"yaw":-2.40362019558733,"roll":-0.037623033348787097,"speed":1.5480000257492099,"altitude":-4.107666015625,"xAccel":5.3557105362415296,"longitude":174.805349623947,"yAccel":-3.52857038378716,"latitude":-41.329172160514901,"date":1446263129.02601,"zAccel":1.6990009695291499,"pitch":0.39472825432102399}
{"yaw":-2.3163504371348198,"roll":-0.032312062090815198,"speed":0,"altitude":-4.47308349609375,"xAccel":1.63080617785454,"longitude":174.805349623947,"yAccel":-1.53247071430087,"latitude":-41.329172160514901,"date":1446263129.2853401,"zAccel":4.26644086837769,"pitch":0.44182118378889901}
{"yaw":-2.2560899690767799,"roll":-0.033428003276703797,"speed":0,"altitude":-4.47308349609375,"xAccel":8.5581518709659594,"longitude":174.805349623947,"yAccel":-2.1101200953125998,"latitude":-41.329172160514901,"date":1446263129.5199101,"zAccel":-4.0011219680309296,"pitch":0.50809075257968295}
{"yaw":-2.2169972753007401,"roll":-0.028501652890786398,"speed":0,"altitude":-4.47308349609375,"xAccel":-2.5491813197731998,"longitude":174.805349623947,"yAccel":2.9858803376555398,"latitude":-41.329172160514901,"date":1446263129.70261,"zAccel":2.1173391491174698,"pitch":0.52413003244328005}
{"yaw":-2.1871449751786498,"roll":-0.0278153085847807,"speed":0,"altitude":-4.47308349609375,"xAccel":-1.8198685720562899,"longitude":174.805349623947,"yAccel":1.66909713298082,"latitude":-41.329172160514901,"date":1446263129.9093101,"zAccel":5.1705565303564098,"pitch":0.53844307203049602}
{"yaw":-2.1482802453678498,"roll":-0.033955607051480201,"speed":0,"altitude":-4.3551025390625,"xAccel":2.4354750290512999,"longitude":174.805349623947,"yAccel":3.4310869872569998,"latitude":-41.329172160514901,"date":1446263130.11726,"zAccel":-1.5477087348699601,"pitch":0.57151783089666996}
{"yaw":-2.1383768856288299,"roll":-0.053484398706318298,"speed":0,"altitude":-4.3551025390625,"xAccel":11.867550015449501,"longitude":174.805349623947,"yAccel":1.51849165558815,"latitude":-41.329172160514901,"date":1446263130.29899,"zAccel":-7.7867269515991202,"pitch":0.57885353675435602}
{"yaw":-2.1252189298278901,"roll":-0.072626818855540495,"speed":0,"altitude":-4.3551025390625,"xAccel":-1.6120728105306601,"longitude":174.805349623947,"yAccel":-3.6942370235920001,"latitude":-41.329172160514901,"date":1446263130.53142,"zAccel":1.4501427300274401,"pitch":0.58321015399995102}
{"yaw":-2.0992452808912501,"roll":-0.068984359417051097,"speed":0,"altitude":-4.3551025390625,"xAccel":1.1026396416127699,"longitude":174.805349623947,"yAccel":-5.34360595047474,"latitude":-41.329172160514901,"date":1446263130.71316,"zAccel":-7.5797758996486699,"pitch":0.60899023149284703}
{"yaw":-2.13148908526095,"roll":-0.103543491434609,"speed":0,"altitude":-4.3551025390625,"xAccel":8.9756660163402593,"longitude":174.805349623947,"yAccel":3.1819339841604202,"latitude":-41.329172160514901,"date":1446263130.9214399,"zAccel":7.7670663595199603,"pitch":0.59376955241476204}
{"yaw":-2.1675393193582302,"roll":-0.095497732427448301,"speed":1.5119999527931201,"altitude":-4.40130615234375,"xAccel":-3.47142182290554,"longitude":174.80533503943599,"yAccel":-0.35442793741822198,"latitude":-41.329174549357298,"date":1446263131.1289599,"zAccel":0.88792704045772597,"pitch":0.60923988983675104}
{"yaw":-2.20189721274672,"roll":-0.099210447489518003,"speed":1.5119999527931201,"altitude":-4.40130615234375,"xAccel":0.83283213898539499,"longitude":174.80533503943599,"yAccel":-1.4558481983840501,"latitude":-41.329174549357298,"date":1446263131.2853501,"zAccel":4.7041777521371797,"pitch":0.623422307206138}
{"yaw":-2.2257920366132802,"roll":-0.118056233272244,"speed":1.5119999527931201,"altitude":-4.40130615234375,"xAccel":0.81485919654369399,"longitude":174.80533503943599,"yAccel":-2.3013101890683201,"latitude":-41.329174549357298,"date":1446263131.5194099,"zAccel":-2.3236803710460698,"pitch":0.65220963662832998}
{"yaw":-2.2294935412332499,"roll":-0.128244126930571,"speed":1.5119999527931201,"altitude":-4.40130615234375,"xAccel":6.5954767167568198,"longitude":174.80533503943599,"yAccel":-0.42267492972314402,"latitude":-41.329174549357298,"date":1446263131.63204,"zAccel":2.7539752423763302,"pitch":0.65472793310104405}
{"yaw":-2.2167995178737998,"roll":-0.151410001419928,"speed":1.5119999527931201,"altitude":-4.40130615234375,"xAccel":4.0436767041683197,"longitude":174.80533503943599,"yAccel":3.8662027567625001,"latitude":-41.329174549357298,"date":1446263131.79755,"zAccel":4.4175300747156099,"pitch":0.67302474690881497}
{"yaw":-2.2137754107051699,"roll":-0.15855826812201701,"speed":1.5119999527931201,"altitude":-4.40130615234375,"xAccel":13.4616255760193,"longitude":174.80533503943599,"yAccel":-4.3113447725772902,"latitude":-41.329174549357298,"date":1446263132.01298,"zAccel":-1.59910898655653,"pitch":0.72358522148498905}
{"yaw":-2.20855920855595,"roll":-0.154798331795169,"speed":1.1160000085830699,"altitude":-5.3368225097656197,"xAccel":2.2943178191781,"longitude":174.805334368883,"yAccel":-4.4722642749548003,"latitude":-41.329172076695897,"date":1446263132.29899,"zAccel":0.083420134615153102,"pitch":0.72422593041639904}
{"yaw":-2.2073318806410902,"roll":-0.149667685984611,"speed":1.1160000085830699,"altitude":-5.3368225097656197,"xAccel":-1.2329756282269999,"longitude":174.805334368883,"yAccel":1.20723685249686,"latitude":-41.329172076695897,"date":1446263132.4539599,"zAccel":5.9418864548206303,"pitch":0.711122973626369}
{"yaw":-2.2283496615160501,"roll":-0.157946111817723,"speed":1.1160000085830699,"altitude":-5.3368225097656197,"xAccel":5.3311590105295199,"longitude":174.805334368883,"yAccel":-0.97650736570358299,"latitude":-41.329172076695897,"date":1446263132.7302699,"zAccel":3.1471237540245101,"pitch":0.71625549799962895}
{"yaw":-2.1623634825255502,"roll":-0.137265707692005,"speed":1.1160000085830699,"altitude":-5.3368225097656197,"xAccel":0.79098166897892996,"longitude":174.805334368883,"yAccel":3.56607362627983,"latitude":-41.329172076695897,"date":1446263133.00383,"zAccel":3.7306215614080398,"pitch":0.73645113876728097}
{"yaw":-2.1577562155484298,"roll":-0.153152489789393,"speed":1.36799998283386,"altitude":-6.66912841796875,"xAccel":9.8406828939914703,"longitude":174.805330680846,"yAccel":5.7383298873901403,"latitude":-41.329170274586701,"date":1446263133.23721,"zAccel":5.1239624619483903,"pitch":0.73141510939312104}
{"yaw":-2.1676314462019199,"roll":-0.14622389360801599,"speed":1.36799998283386,"altitude":-6.66912841796875,"xAccel":0.66403788514435302,"longitude":174.805330680846,"yAccel":-1.1738798581063701,"latitude":-41.329170274586701,"date":1446263133.52228,"zAccel":-3.3614382147789001,"pitch":0.73419113015545501}
